
$GNGGA,085452.00,5212.82674,N,00006.63639,E,1,11,1.72,15.6,M,45.7,M,,*78

['08:54:52', 52.213779, 0.1106065, '15.6', '11', '1']
$GNGGA,085453.00,5212.82709,N,00006.63516,E,1,11,1.44,16.9,M,45.7,M,,*75

['08:54:53', 52.213784833333335, 0.110586, '16.9', '11', '1']
$GNGGA,085454.00,5212.82750,N,00006.63372,E,1,11,1.44,18.4,M,45.7,M,,*79

['08:54:54', 52.213791666666665, 0.11056200000000001, '18.4', '11', '1']
$GNGGA,085455.00,5212.82778,N,00006.63292,E,1,11,1.83,19.2,M,45.7,M,,*71

['08:54:55', 52.213796333333335, 0.11054866666666667, '19.2', '11', '1']
$GNGGA,085456.00,5212.82825,N,00006.63140,E,1,12,1.44,20.9,M,45.7,M,,*70

['08:54:56', 52.21380416666667, 0.11052333333333333, '20.9', '12', '1']
$GNGGA,085457.00,5212.82841,N,00006.63082,E,1,12,1.72,21.3,M,45.7,M,,*72

['08:54:57', 52.21380683333334, 0.11051366666666666, '21.3', '12', '1']
$GNGGA,085458.00,5212.82869,N,00006.62988,E,1,12,1.44,22.2,M,45.7,M,,*72

['08:54:58', 52.2138115, 0.110498, '22.2', '12', '1']
$GNGGA,085459.00,5212.82889,N,00006.62935,E,1,12,1.83,22.6,M,45.7,M,,*74

['08:54:59', 52.21381483333333, 0.11048916666666667, '22.6', '12', '1']
$GNGGA,085500.00,5212.82914,N,00006.62871,E,1,12,1.44,23.3,M,45.7,M,,*72

['08:55:00', 52.213819, 0.1104785, '23.3', '12', '1']
$GNGGA,085501.00,5212.82947,N,00006.62785,E,1,12,1.44,24.2,M,45.7,M,,*77

['08:55:01', 52.2138245, 0.11046416666666665, '24.2', '12', '1']
$GNGGA,085502.00,5212.83004,N,00006.62626,E,1,12,1.44,25.9,M,45.7,M,,*79

['08:55:02', 52.213834, 0.11043766666666667, '25.9', '12', '1']
$GNGGA,085503.00,5212.83045,N,00006.62518,E,1,12,1.84,27.1,M,45.7,M,,*75

['08:55:03', 52.213840833333336, 0.11041966666666667, '27.1', '12', '1']
$GNGGA,085504.00,5212.83088,N,00006.62381,E,1,12,1.16,28.5,M,45.7,M,,*75

['08:55:04', 52.213848, 0.11039683333333333, '28.5', '12', '1']
$GNGGA,085505.00,5212.83126,N,00006.62263,E,1,12,1.16,29.7,M,45.7,M,,*7F

['08:55:05', 52.21385433333333, 0.11037716666666667, '29.7', '12', '1']
$GNGGA,085506.00,5212.83162,N,00006.62170,E,1,12,1.44,30.8,M,45.7,M,,*7D

['08:55:06', 52.213860333333336, 0.11036166666666666, '30.8', '12', '1']
$GNGGA,085507.00,5212.83190,N,00006.62089,E,1,12,1.16,31.7,M,45.7,M,,*7F

['08:55:07', 52.213865, 0.11034816666666666, '31.7', '12', '1']
$GNGGA,085508.00,5212.83215,N,00006.62013,E,1,12,1.16,32.5,M,45.7,M,,*7C

['08:55:08', 52.21386916666667, 0.11033549999999999, '32.5', '12', '1']
$GNGGA,085509.00,5212.83214,N,00006.62032,E,1,12,1.72,32.3,M,45.7,M,,*7B

['08:55:09', 52.213869, 0.11033866666666667, '32.3', '12', '1']
$GNGGA,085510.00,5212.83217,N,00006.62027,E,1,12,1.16,32.4,M,45.7,M,,*71

['08:55:10', 52.2138695, 0.11033783333333333, '32.4', '12', '1']
$GNGGA,085511.00,5212.83223,N,00006.62016,E,1,12,1.16,32.5,M,45.7,M,,*74

['08:55:11', 52.2138705, 0.110336, '32.5', '12', '1']

$GNGGA,085512.00,5212.83226,N,00006.62024,E,1,12,1.45,32.5,M,45.7,M,,*75

['08:55:12', 52.213871, 0.11033733333333333, '32.5', '12', '1']
$GNGGA,085513.00,5212.83235,N,00006.62006,E,1,12,1.16,32.7,M,45.7,M,,*72

['08:55:13', 52.2138725, 0.11033433333333333, '32.7', '12', '1']
$GNGGA,085514.00,5212.83248,N,00006.61969,E,1,12,1.16,33.1,M,45.7,M,,*7B

['08:55:14', 52.21387466666667, 0.11032816666666667, '33.1', '12', '1']
$GNGGA,085515.00,5212.83265,N,00006.61924,E,1,12,1.16,33.7,M,45.7,M,,*7A

['08:55:15', 52.2138775, 0.11032066666666666, '33.7', '12', '1']
$GNGGA,085516.00,5212.83281,N,00006.61895,E,1,12,1.45,34.3,M,45.7,M,,*7D

['08:55:16', 52.21388016666667, 0.11031583333333334, '34.3', '12', '1']
$GNGGA,085517.00,5212.83297,N,00006.61869,E,1,12,1.16,34.9,M,45.7,M,,*74

['08:55:17', 52.21388283333334, 0.11031149999999999, '34.9', '12', '1']
$GNGGA,085518.00,5212.83311,N,00006.61834,E,1,12,1.16,35.5,M,45.7,M,,*71

['08:55:18', 52.213885166666664, 0.11030566666666666, '35.5', '12', '1']
$GNGGA,085519.00,5212.83321,N,00006.61808,E,1,12,1.45,35.9,M,45.7,M,,*76

['08:55:19', 52.21388683333333, 0.11030133333333333, '35.9', '12', '1']
$GNGGA,085520.00,5212.83329,N,00006.61779,E,1,12,1.45,36.3,M,45.7,M,,*74

['08:55:20', 52.21388816666666, 0.1102965, '36.3', '12', '1']
$GNGGA,085521.00,5212.83336,N,00006.61753,E,1,12,1.45,36.6,M,45.7,M,,*76

['08:55:21', 52.213889333333334, 0.11029216666666668, '36.6', '12', '1']
$GNGGA,085522.00,5212.83339,N,00006.61733,E,1,12,1.45,36.8,M,45.7,M,,*72

['08:55:22', 52.21388983333333, 0.11028883333333334, '36.8', '12', '1']
$GNGGA,085523.00,5212.83341,N,00006.61720,E,1,12,1.84,36.9,M,45.7,M,,*72

['08:55:23', 52.213890166666665, 0.11028666666666667, '36.9', '12', '1']
$GNGGA,085524.00,5212.83341,N,00006.61712,E,1,12,1.84,37.0,M,45.7,M,,*7C

['08:55:24', 52.213890166666665, 0.11028533333333333, '37.0', '12', '1']
$GNGGA,085525.00,5212.83341,N,00006.61709,E,1,12,1.84,37.2,M,45.7,M,,*75

['08:55:25', 52.213890166666665, 0.11028483333333333, '37.2', '12', '1']
$GNGGA,085526.00,5212.83342,N,00006.61712,E,1,12,1.84,37.4,M,45.7,M,,*79

['08:55:26', 52.21389033333333, 0.11028533333333333, '37.4', '12', '1']
$GNGGA,085527.00,5212.83341,N,00006.61715,E,1,11,1.84,37.6,M,45.7,M,,*7D

['08:55:27', 52.213890166666665, 0.11028583333333333, '37.6', '11', '1']
$GNGGA,085528.00,5212.83341,N,00006.61715,E,1,11,1.84,37.6,M,45.7,M,,*72

['08:55:28', 52.213890166666665, 0.11028583333333333, '37.6', '11', '1']
$GNGGA,085529.00,5212.83341,N,00006.61714,E,1,11,1.84,37.7,M,45.7,M,,*73

['08:55:29', 52.213890166666665, 0.11028566666666667, '37.7', '11', '1']
$GNGGA,085530.00,5212.83340,N,00006.61711,E,1,11,1.84,37.8,M,45.7,M,,*70

['08:55:30', 52.21389, 0.11028516666666667, '37.8', '11', '1']
$GNGGA,085531.00,5212.83338,N,00006.61710,E,1,11,1.84,37.8,M,45.7,M,,*7F

['08:55:31', 52.21388966666667, 0.110285, '37.8', '11', '1']
$GNGGA,085532.00,5212.83336,N,00006.61713,E,1,11,1.84,37.9,M,45.7,M,,*70

['08:55:32', 52.213889333333334, 0.11028550000000001, '37.9', '11', '1']
$GNGGA,085533.00,5212.83334,N,00006.61713,E,1,11,1.84,37.9,M,45.7,M,,*73

['08:55:33', 52.213889, 0.11028550000000001, '37.9', '11', '1']
$GNGGA,085534.00,5212.83330,N,00006.61722,E,1,11,1.84,37.9,M,45.7,M,,*72

['08:55:34', 52.21388833333334, 0.110287, '37.9', '11', '1']
$GNGGA,085535.00,5212.83326,N,00006.61724,E,1,11,1.84,37.8,M,45.7,M,,*73

['08:55:35', 52.213887666666665, 0.11028733333333333, '37.8', '11', '1']
$GNGGA,085536.00,5212.83323,N,00006.61725,E,1,11,1.84,37.8,M,45.7,M,,*74

['08:55:36', 52.213887166666666, 0.11028750000000001, '37.8', '11', '1']
$GNGGA,085537.00,5212.83319,N,00006.61727,E,1,11,1.84,37.7,M,45.7,M,,*71

['08:55:37', 52.2138865, 0.11028783333333333, '37.7', '11', '1']
$GNGGA,085538.00,5212.83315,N,00006.61729,E,1,10,1.84,37.6,M,45.7,M,,*7C

['08:55:38', 52.213885833333336, 0.11028816666666666, '37.6', '10', '1']
$GNGGA,085539.00,5212.83312,N,00006.61739,E,1,10,1.84,37.6,M,45.7,M,,*7B

['08:55:39', 52.21388533333333, 0.11028983333333334, '37.6', '10', '1']
$GNGGA,085540.00,5212.83309,N,00006.61755,E,1,10,1.84,37.5,M,45.7,M,,*76

['08:55:40', 52.21388483333333, 0.11029249999999999, '37.5', '10', '1']
$GNGGA,085541.00,5212.83306,N,00006.61777,E,1,10,1.84,37.5,M,45.7,M,,*78

['08:55:41', 52.21388433333333, 0.11029616666666667, '37.5', '10', '1']
$GNGGA,085542.00,5212.83303,N,00006.61799,E,1,10,1.84,37.4,M,45.7,M,,*7F

['08:55:42', 52.213883833333334, 0.11029983333333333, '37.4', '10', '1']
$GNGGA,085543.00,5212.83301,N,00006.61816,E,1,10,1.84,37.3,M,45.7,M,,*73

['08:55:43', 52.2138835, 0.11030266666666666, '37.3', '10', '1']
$GNGGA,085544.00,5212.83302,N,00006.61830,E,1,10,1.84,37.3,M,45.7,M,,*73

['08:55:44', 52.21388366666667, 0.110305, '37.3', '10', '1']
$GNGGA,085545.00,5212.83303,N,00006.61841,E,1,10,1.84,37.3,M,45.7,M,,*75

['08:55:45', 52.213883833333334, 0.11030683333333333, '37.3', '10', '1']
$GNGGA,085546.00,5212.83304,N,00006.61853,E,1,11,1.84,37.3,M,45.7,M,,*73

['08:55:46', 52.213884, 0.11030883333333333, '37.3', '11', '1']
$GNGGA,085547.00,5212.83305,N,00006.61857,E,1,11,1.84,37.3,M,45.7,M,,*77

['08:55:47', 52.213884166666666, 0.1103095, '37.3', '11', '1']
$GNGGA,085548.00,5212.83306,N,00006.61857,E,1,11,1.84,37.3,M,45.7,M,,*7B

['08:55:48', 52.21388433333333, 0.1103095, '37.3', '11', '1']
$GNGGA,085549.00,5212.83307,N,00006.61857,E,1,11,1.84,37.3,M,45.7,M,,*7B

['08:55:49', 52.2138845, 0.1103095, '37.3', '11', '1']
$GNGGA,085550.00,5212.83310,N,00006.61838,E,1,12,1.21,37.5,M,45.7,M,,*76

['08:55:50', 52.213885, 0.11030633333333334, '37.5', '12', '1']
$GNGGA,085551.00,5212.83314,N,00006.61817,E,1,12,1.21,37.7,M,45.7,M,,*7C

['08:55:51', 52.21388566666667, 0.11030283333333334, '37.7', '12', '1']
$GNGGA,085552.00,5212.83317,N,00006.61798,E,1,12,1.21,37.9,M,45.7,M,,*7A

['08:55:52', 52.21388616666667, 0.11029966666666667, '37.9', '12', '1']
$GNGGA,085553.00,5212.83320,N,00006.61783,E,1,12,1.21,38.1,M,45.7,M,,*72

['08:55:53', 52.21388666666667, 0.11029716666666665, '38.1', '12', '1']
$GNGGA,085554.00,5212.83322,N,00006.61777,E,1,12,1.21,38.3,M,45.7,M,,*7E

['08:55:54', 52.213887, 0.11029616666666667, '38.3', '12', '1']
$GNGGA,085555.00,5212.83325,N,00006.61765,E,1,12,1.21,38.6,M,45.7,M,,*7E

['08:55:55', 52.2138875, 0.11029416666666667, '38.6', '12', '1']
$GNGGA,085556.00,5212.83328,N,00006.61751,E,1,12,1.21,38.8,M,45.7,M,,*79

['08:55:56', 52.213888, 0.11029183333333334, '38.8', '12', '1']
$GNGGA,085557.00,5212.83331,N,00006.61737,E,1,12,1.21,38.9,M,45.7,M,,*71

['08:55:57', 52.2138885, 0.1102895, '38.9', '12', '1']
$GNGGA,085558.00,5212.83335,N,00006.61717,E,1,12,1.16,39.1,M,45.7,M,,*75

['08:55:58', 52.21388916666667, 0.11028616666666666, '39.1', '12', '1']
$GNGGA,085559.00,5212.83337,N,00006.61703,E,1,11,1.21,39.2,M,45.7,M,,*77

['08:55:59', 52.2138895, 0.11028383333333333, '39.2', '11', '1']
$GNGGA,085600.00,5212.83340,N,00006.61686,E,1,11,1.21,39.3,M,45.7,M,,*75

['08:56:00', 52.21389, 0.110281, '39.3', '11', '1']
$GNGGA,085601.00,5212.83343,N,00006.61671,E,1,11,1.21,39.4,M,45.7,M,,*78

['08:56:01', 52.2138905, 0.1102785, '39.4', '11', '1']
$GNGGA,085602.00,5212.83347,N,00006.61657,E,1,11,1.21,39.5,M,45.7,M,,*7A

['08:56:02', 52.21389116666667, 0.11027616666666668, '39.5', '11', '1']
$GNGGA,085603.00,5212.83350,N,00006.61647,E,1,11,1.21,39.6,M,45.7,M,,*7F

['08:56:03', 52.21389166666667, 0.1102745, '39.6', '11', '1']
$GNGGA,085604.00,5212.83353,N,00006.61638,E,1,11,1.21,39.7,M,45.7,M,,*72

['08:56:04', 52.21389216666667, 0.11027300000000001, '39.7', '11', '1']
$GNGGA,085605.00,5212.83356,N,00006.61628,E,1,11,1.21,39.7,M,45.7,M,,*77

['08:56:05', 52.213892666666666, 0.11027133333333333, '39.7', '11', '1']
$GNGGA,085606.00,5212.83358,N,00006.61620,E,1,11,1.21,39.7,M,45.7,M,,*72

['08:56:06', 52.213893, 0.11027, '39.7', '11', '1']
$GNGGA,085607.00,5212.83359,N,00006.61612,E,1,11,1.21,39.7,M,45.7,M,,*73

['08:56:07', 52.213893166666665, 0.11026866666666665, '39.7', '11', '1']
$GNGGA,085608.00,5212.83360,N,00006.61604,E,1,11,1.21,39.7,M,45.7,M,,*71

['08:56:08', 52.21389333333333, 0.11026733333333333, '39.7', '11', '1']
$GNGGA,085609.00,5212.83359,N,00006.61596,E,1,11,1.21,39.7,M,45.7,M,,*72

['08:56:09', 52.213893166666665, 0.110266, '39.7', '11', '1']
$GNGGA,085610.00,5212.83357,N,00006.61586,E,1,11,1.21,39.6,M,45.7,M,,*74

['08:56:10', 52.21389283333333, 0.11026433333333333, '39.6', '11', '1']
$GNGGA,085611.00,5212.83353,N,00006.61591,E,1,11,1.85,39.4,M,45.7,M,,*7B

['08:56:11', 52.21389216666667, 0.11026516666666668, '39.4', '11', '1']
$GNGGA,085612.00,5212.83349,N,00006.61594,E,1,12,1.45,39.3,M,45.7,M,,*7E

['08:56:12', 52.2138915, 0.11026566666666666, '39.3', '12', '1']
$GNGGA,085613.00,5212.83347,N,00006.61589,E,1,12,1.45,39.2,M,45.7,M,,*7C

['08:56:13', 52.21389116666667, 0.11026483333333334, '39.2', '12', '1']
$GNGGA,085614.00,5212.83347,N,00006.61584,E,1,12,1.45,39.3,M,45.7,M,,*77

['08:56:14', 52.21389116666667, 0.110264, '39.3', '12', '1']
$GNGGA,085615.00,5212.83348,N,00006.61577,E,1,12,1.45,39.4,M,45.7,M,,*72

['08:56:15', 52.213891333333336, 0.11026283333333334, '39.4', '12', '1']
$GNGGA,085616.00,5212.83349,N,00006.61563,E,1,12,1.45,39.5,M,45.7,M,,*74

['08:56:16', 52.2138915, 0.11026050000000001, '39.5', '12', '1']
$GNGGA,085617.00,5212.83351,N,00006.61548,E,1,12,1.45,39.6,M,45.7,M,,*76

['08:56:17', 52.213891833333335, 0.110258, '39.6', '12', '1']
$GNGGA,085618.00,5212.83351,N,00006.61538,E,1,12,1.45,39.7,M,45.7,M,,*7F

['08:56:18', 52.213891833333335, 0.11025633333333333, '39.7', '12', '1']
$GNGGA,085619.00,5212.83352,N,00006.61524,E,1,12,1.16,39.7,M,45.7,M,,*76

['08:56:19', 52.213892, 0.110254, '39.7', '12', '1']
$GNGGA,085620.00,5212.83352,N,00006.61523,E,1,12,1.16,39.7,M,45.7,M,,*7B

['08:56:20', 52.213892, 0.11025383333333334, '39.7', '12', '1']
$GNGGA,085621.00,5212.83352,N,00006.61517,E,1,12,1.16,39.7,M,45.7,M,,*7D

['08:56:21', 52.213892, 0.11025283333333333, '39.7', '12', '1']
$GNGGA,085622.00,5212.83352,N,00006.61521,E,1,12,1.45,39.7,M,45.7,M,,*7D

['08:56:22', 52.213892, 0.1102535, '39.7', '12', '1']
$GNGGA,085623.00,5212.83350,N,00006.61529,E,1,12,1.45,39.5,M,45.7,M,,*74

['08:56:23', 52.21389166666667, 0.11025483333333333, '39.5', '12', '1']
$GNGGA,085624.00,5212.83345,N,00006.61539,E,1,12,1.45,39.3,M,45.7,M,,*70

['08:56:24', 52.21389083333333, 0.1102565, '39.3', '12', '1']
$GNGGA,085625.00,5212.83342,N,00006.61550,E,1,12,1.45,39.2,M,45.7,M,,*78

['08:56:25', 52.21389033333333, 0.11025833333333333, '39.2', '12', '1']
$GNGGA,085626.00,5212.83340,N,00006.61555,E,1,12,1.16,39.0,M,45.7,M,,*78

['08:56:26', 52.21389, 0.11025916666666666, '39.0', '12', '1']
$GNGGA,085627.00,5212.83340,N,00006.61553,E,1,12,1.16,38.9,M,45.7,M,,*77

['08:56:27', 52.21389, 0.11025883333333333, '38.9', '12', '1']
$GNGGA,085628.00,5212.83339,N,00006.61559,E,1,12,1.45,38.8,M,45.7,M,,*7B

['08:56:28', 52.21388983333333, 0.11025983333333333, '38.8', '12', '1']
$GNGGA,085629.00,5212.83342,N,00006.61544,E,1,12,1.16,38.8,M,45.7,M,,*7C

['08:56:29', 52.21389033333333, 0.11025733333333335, '38.8', '12', '1']
$GNGGA,085630.00,5212.83343,N,00006.61536,E,1,12,1.45,38.8,M,45.7,M,,*76

['08:56:30', 52.2138905, 0.11025599999999999, '38.8', '12', '1']
$GNGGA,085631.00,5212.83347,N,00006.61515,E,1,12,1.16,38.9,M,45.7,M,,*75

['08:56:31', 52.21389116666667, 0.1102525, '38.9', '12', '1']
$GNGGA,085632.00,5212.83351,N,00006.61506,E,1,12,1.45,38.9,M,45.7,M,,*75

['08:56:32', 52.213891833333335, 0.110251, '38.9', '12', '1']
$GNGGA,085633.00,5212.83355,N,00006.61484,E,1,12,1.16,39.0,M,45.7,M,,*75

['08:56:33', 52.2138925, 0.11024733333333334, '39.0', '12', '1']
$GNGGA,085634.00,5212.83358,N,00006.61509,E,1,12,1.58,38.8,M,45.7,M,,*78

['08:56:34', 52.213893, 0.1102515, '38.8', '12', '1']
$GNGGA,085635.00,5212.83362,N,00006.61531,E,1,12,1.27,38.7,M,45.7,M,,*7C

['08:56:35', 52.213893666666664, 0.11025516666666667, '38.7', '12', '1']
$GNGGA,085636.00,5212.83365,N,00006.61548,E,1,12,1.27,38.6,M,45.7,M,,*77

['08:56:36', 52.21389416666667, 0.110258, '38.6', '12', '1']
$GNGGA,085637.00,5212.83369,N,00006.61556,E,1,12,1.27,38.5,M,45.7,M,,*76

['08:56:37', 52.213894833333335, 0.11025933333333333, '38.5', '12', '1']
$GNGGA,085638.00,5212.83375,N,00006.61557,E,1,12,1.27,38.5,M,45.7,M,,*75

['08:56:38', 52.21389583333333, 0.1102595, '38.5', '12', '1']
$GNGGA,085639.00,5212.83377,N,00006.61581,E,1,12,1.58,38.3,M,45.7,M,,*73

['08:56:39', 52.213896166666665, 0.1102635, '38.3', '12', '1']
$GNGGA,085640.00,5212.83380,N,00006.61599,E,1,12,1.27,38.1,M,45.7,M,,*76

['08:56:40', 52.21389666666666, 0.1102665, '38.1', '12', '1']
$GNGGA,085641.00,5212.83384,N,00006.61616,E,1,12,1.27,37.9,M,45.7,M,,*70

['08:56:41', 52.213897333333335, 0.11026933333333333, '37.9', '12', '1']
$GNGGA,085642.00,5212.83388,N,00006.61630,E,1,12,1.27,37.8,M,45.7,M,,*7A

['08:56:42', 52.213898, 0.11027166666666667, '37.8', '12', '1']
$GNGGA,085643.00,5212.83393,N,00006.61636,E,1,12,1.27,37.7,M,45.7,M,,*78

['08:56:43', 52.21389883333333, 0.11027266666666667, '37.7', '12', '1']
$GNGGA,085644.00,5212.83399,N,00006.61640,E,1,12,1.27,37.7,M,45.7,M,,*74

['08:56:44', 52.213899833333336, 0.11027333333333332, '37.7', '12', '1']
$GNGGA,085645.00,5212.83403,N,00006.61654,E,1,12,1.27,37.6,M,45.7,M,,*75

['08:56:45', 52.2139005, 0.11027566666666666, '37.6', '12', '1']
$GNGGA,085646.00,5212.83409,N,00006.61665,E,1,12,1.27,37.5,M,45.7,M,,*7D

['08:56:46', 52.2139015, 0.1102775, '37.5', '12', '1']
$GNGGA,085647.00,5212.83413,N,00006.61673,E,1,12,1.27,37.4,M,45.7,M,,*71

['08:56:47', 52.213902166666664, 0.11027883333333333, '37.4', '12', '1']
$GNGGA,085648.00,5212.83414,N,00006.61700,E,1,12,1.58,37.2,M,45.7,M,,*72

['08:56:48', 52.21390233333333, 0.11028333333333333, '37.2', '12', '1']
$GNGGA,085649.00,5212.83415,N,00006.61724,E,1,12,1.58,37.0,M,45.7,M,,*76

['08:56:49', 52.2139025, 0.11028733333333333, '37.0', '12', '1']
$GNGGA,085650.00,5212.83413,N,00006.61755,E,1,12,3.89,36.7,M,45.7,M,,*76

['08:56:50', 52.213902166666664, 0.11029249999999999, '36.7', '12', '1']
$GNGGA,091524.00,5212.83167,N,00006.60513,E,1,12,0.94,43.4,M,45.7,M,,*7A

['09:15:24', 52.21386116666667, 0.1100855, '43.4', '12', '1']
$GNGGA,091525.00,5212.83170,N,00006.60501,E,1,12,0.88,43.5,M,45.7,M,,*72

['09:15:25', 52.213861666666666, 0.1100835, '43.5', '12', '1']
$GNGGA,091526.00,5212.83171,N,00006.60503,E,1,12,0.88,43.4,M,45.7,M,,*73

['09:15:26', 52.21386183333333, 0.11008383333333334, '43.4', '12', '1']
$GNGGA,091527.00,5212.83171,N,00006.60504,E,1,12,0.88,43.5,M,45.7,M,,*74

['09:15:27', 52.21386183333333, 0.110084, '43.5', '12', '1']
$GNGGA,091528.00,5212.83171,N,00006.60504,E,1,12,0.88,43.5,M,45.7,M,,*7B

['09:15:28', 52.21386183333333, 0.110084, '43.5', '12', '1']
$GNGGA,091529.00,5212.83171,N,00006.60490,E,1,12,0.88,43.5,M,45.7,M,,*76

['09:15:29', 52.21386183333333, 0.11008166666666666, '43.5', '12', '1']
$GNGGA,091530.00,5212.83172,N,00006.60472,E,1,12,0.88,43.7,M,45.7,M,,*73

['09:15:30', 52.213862, 0.11007866666666667, '43.7', '12', '1']
$GNGGA,091531.00,5212.83172,N,00006.60458,E,1,12,0.88,43.8,M,45.7,M,,*75

['09:15:31', 52.213862, 0.11007633333333335, '43.8', '12', '1']
$GNGGA,091532.00,5212.83171,N,00006.60443,E,1,12,0.88,43.9,M,45.7,M,,*7E

['09:15:32', 52.21386183333333, 0.11007383333333333, '43.9', '12', '1']
$GNGGA,091533.00,5212.83171,N,00006.60424,E,1,12,0.88,44.0,M,45.7,M,,*70

['09:15:33', 52.21386183333333, 0.11007066666666666, '44.0', '12', '1']
$GNGGA,091534.00,5212.83172,N,00006.60409,E,1,12,0.88,44.1,M,45.7,M,,*7A

['09:15:34', 52.213862, 0.11006816666666668, '44.1', '12', '1']
$GNGGA,091535.00,5212.83175,N,00006.60389,E,1,12,0.88,44.3,M,45.7,M,,*71

['09:15:35', 52.2138625, 0.11006483333333333, '44.3', '12', '1']
$GNGGA,091536.00,5212.83178,N,00006.60370,E,1,12,0.88,44.4,M,45.7,M,,*7E

['09:15:36', 52.213863, 0.11006166666666667, '44.4', '12', '1']
$GNGGA,091537.00,5212.83182,N,00006.60354,E,1,12,0.88,44.5,M,45.7,M,,*7D

['09:15:37', 52.21386366666667, 0.11005899999999999, '44.5', '12', '1']
$GNGGA,091538.00,5212.83186,N,00006.60336,E,1,12,0.88,44.6,M,45.7,M,,*71

['09:15:38', 52.21386433333333, 0.110056, '44.6', '12', '1']
$GNGGA,091539.00,5212.83188,N,00006.60317,E,1,12,0.88,44.7,M,45.7,M,,*7C

['09:15:39', 52.213864666666666, 0.11005283333333334, '44.7', '12', '1']
$GNGGA,091540.00,5212.83191,N,00006.60299,E,1,12,0.88,44.8,M,45.7,M,,*72

['09:15:40', 52.213865166666665, 0.11004983333333333, '44.8', '12', '1']
$GNGGA,091541.00,5212.83195,N,00006.60278,E,1,12,0.88,45.0,M,45.7,M,,*71

['09:15:41', 52.21386583333334, 0.11004633333333333, '45.0', '12', '1']
$GNGGA,091542.00,5212.83199,N,00006.60253,E,1,12,0.88,45.1,M,45.7,M,,*76

['09:15:42', 52.2138665, 0.11004216666666666, '45.1', '12', '1']
$GNGGA,091543.00,5212.83203,N,00006.60225,E,1,12,0.88,45.2,M,45.7,M,,*75

['09:15:43', 52.21386716666667, 0.1100375, '45.2', '12', '1']
$GNGGA,091544.00,5212.83206,N,00006.60215,E,1,12,0.94,45.3,M,45.7,M,,*78

['09:15:44', 52.213867666666665, 0.11003583333333333, '45.3', '12', '1']
$GNGGA,091545.00,5212.83207,N,00006.60202,E,1,12,0.88,45.2,M,45.7,M,,*72

['09:15:45', 52.21386783333333, 0.11003366666666667, '45.2', '12', '1']
$GNGGA,091546.00,5212.83214,N,00006.60189,E,1,12,1.03,45.3,M,45.7,M,,*70

['09:15:46', 52.213869, 0.1100315, '45.3', '12', '1']
$GNGGA,091547.00,5212.83219,N,00006.60184,E,1,12,1.03,45.2,M,45.7,M,,*70

['09:15:47', 52.213869833333334, 0.11003066666666667, '45.2', '12', '1']
$GNGGA,091548.00,5212.83223,N,00006.60175,E,1,12,1.03,45.1,M,45.7,M,,*7B

['09:15:48', 52.2138705, 0.11002916666666666, '45.1', '12', '1']
$GNGGA,091549.00,5212.83230,N,00006.60167,E,1,12,1.03,45.0,M,45.7,M,,*7A

['09:15:49', 52.21387166666667, 0.11002783333333334, '45.0', '12', '1']
$GNGGA,091550.00,5212.83233,N,00006.60163,E,1,12,1.03,44.9,M,45.7,M,,*7D

['09:15:50', 52.21387216666667, 0.11002716666666666, '44.9', '12', '1']
$GNGGA,091551.00,5212.83239,N,00006.60163,E,1,12,1.03,44.8,M,45.7,M,,*77

['09:15:51', 52.213873166666666, 0.11002716666666666, '44.8', '12', '1']
$GNGGA,091552.00,5212.83243,N,00006.60166,E,1,12,1.16,44.7,M,45.7,M,,*77

['09:15:52', 52.21387383333333, 0.11002766666666666, '44.7', '12', '1']
$GNGGA,091553.00,5212.83247,N,00006.60170,E,1,12,0.90,44.6,M,45.7,M,,*7B

['09:15:53', 52.2138745, 0.11002833333333334, '44.6', '12', '1']
$GNGGA,091554.00,5212.83253,N,00006.60165,E,1,12,1.26,44.6,M,45.7,M,,*71

['09:15:54', 52.2138755, 0.1100275, '44.6', '12', '1']
$GNGGA,091555.00,5212.83259,N,00006.60171,E,1,12,0.90,44.6,M,45.7,M,,*73

['09:15:55', 52.2138765, 0.1100285, '44.6', '12', '1']
$GNGGA,091556.00,5212.83264,N,00006.60178,E,1,12,0.90,44.5,M,45.7,M,,*74

['09:15:56', 52.213877333333336, 0.11002966666666666, '44.5', '12', '1']
$GNGGA,091557.00,5212.83268,N,00006.60182,E,1,12,1.25,44.5,M,45.7,M,,*73

['09:15:57', 52.213878, 0.11003033333333333, '44.5', '12', '1']
$GNGGA,091558.00,5212.83273,N,00006.60185,E,1,12,1.25,44.5,M,45.7,M,,*71

['09:15:58', 52.21387883333333, 0.11003083333333333, '44.5', '12', '1']
$GNGGA,091559.00,5212.83278,N,00006.60183,E,1,12,1.25,44.6,M,45.7,M,,*7E

['09:15:59', 52.213879666666664, 0.11003049999999999, '44.6', '12', '1']
$GNGGA,091600.00,5212.83283,N,00006.60177,E,1,12,1.25,44.7,M,45.7,M,,*7F

['09:16:00', 52.2138805, 0.1100295, '44.7', '12', '1']
$GNGGA,091601.00,5212.83289,N,00006.60167,E,1,12,1.25,44.9,M,45.7,M,,*7B

['09:16:01', 52.2138815, 0.11002783333333334, '44.9', '12', '1']
$GNGGA,091602.00,5212.83293,N,00006.60158,E,1,12,1.25,45.1,M,45.7,M,,*76

['09:16:02', 52.213882166666664, 0.11002633333333334, '45.1', '12', '1']
$GNGGA,091603.00,5212.83293,N,00006.60158,E,1,12,0.90,45.1,M,45.7,M,,*78

['09:16:03', 52.213882166666664, 0.11002633333333334, '45.1', '12', '1']
$GNGGA,091604.00,5212.83292,N,00006.60162,E,1,12,0.90,45.1,M,45.7,M,,*77

['09:16:04', 52.213882, 0.110027, '45.1', '12', '1']
$GNGGA,091605.00,5212.83289,N,00006.60170,E,1,12,0.90,45.0,M,45.7,M,,*7E

['09:16:05', 52.2138815, 0.11002833333333334, '45.0', '12', '1']
$GNGGA,091606.00,5212.83288,N,00006.60177,E,1,12,0.90,45.0,M,45.7,M,,*7B

['09:16:06', 52.21388133333333, 0.1100295, '45.0', '12', '1']
$GNGGA,091607.00,5212.83294,N,00006.60169,E,1,12,1.25,45.2,M,45.7,M,,*75

['09:16:07', 52.21388233333333, 0.11002816666666666, '45.2', '12', '1']
$GNGGA,091608.00,5212.83301,N,00006.60149,E,1,12,1.25,45.5,M,45.7,M,,*72

['09:16:08', 52.2138835, 0.11002483333333334, '45.5', '12', '1']
$GNGGA,091609.00,5212.83302,N,00006.60143,E,1,12,0.90,45.7,M,45.7,M,,*77

['09:16:09', 52.21388366666667, 0.11002383333333333, '45.7', '12', '1']
$GNGGA,091610.00,5212.83302,N,00006.60145,E,1,12,0.90,45.7,M,45.7,M,,*79

['09:16:10', 52.21388366666667, 0.11002416666666666, '45.7', '12', '1']
$GNGGA,091611.00,5212.83300,N,00006.60148,E,1,12,0.90,45.8,M,45.7,M,,*78

['09:16:11', 52.213883333333335, 0.11002466666666666, '45.8', '12', '1']
$GNGGA,091612.00,5212.83303,N,00006.60143,E,1,12,1.25,46.1,M,45.7,M,,*76

['09:16:12', 52.213883833333334, 0.11002383333333333, '46.1', '12', '1']
$GNGGA,091613.00,5212.83304,N,00006.60143,E,1,12,1.25,46.3,M,45.7,M,,*72

['09:16:13', 52.213884, 0.11002383333333333, '46.3', '12', '1']
$GNGGA,091614.00,5212.83303,N,00006.60150,E,1,12,1.25,46.5,M,45.7,M,,*76

['09:16:14', 52.213883833333334, 0.110025, '46.5', '12', '1']
$GNGGA,091615.00,5212.83302,N,00006.60156,E,1,12,1.25,46.6,M,45.7,M,,*73

['09:16:15', 52.21388366666667, 0.110026, '46.6', '12', '1']
$GNGGA,091616.00,5212.83300,N,00006.60164,E,1,12,1.25,46.7,M,45.7,M,,*72

['09:16:16', 52.213883333333335, 0.11002733333333332, '46.7', '12', '1']
$GNGGA,091617.00,5212.83299,N,00006.60160,E,1,12,1.32,46.9,M,45.7,M,,*7E

['09:16:17', 52.21388316666667, 0.11002666666666668, '46.9', '12', '1']
$GNGGA,091618.00,5212.83298,N,00006.60152,E,1,12,1.32,47.1,M,45.7,M,,*78

['09:16:18', 52.213883, 0.11002533333333334, '47.1', '12', '1']
$GNGGA,091619.00,5212.83300,N,00006.60130,E,1,12,1.17,47.4,M,45.7,M,,*7F

['09:16:19', 52.213883333333335, 0.11002166666666667, '47.4', '12', '1']
$GNGGA,091620.00,5212.83301,N,00006.60115,E,1,12,1.17,47.6,M,45.7,M,,*71

['09:16:20', 52.2138835, 0.11001916666666665, '47.6', '12', '1']
$GNGGA,091621.00,5212.83293,N,00006.60121,E,1,12,0.89,47.6,M,45.7,M,,*7B

['09:16:21', 52.213882166666664, 0.11002016666666667, '47.6', '12', '1']
$GNGGA,091622.00,5212.83291,N,00006.60113,E,1,12,1.17,47.7,M,45.7,M,,*7C

['09:16:22', 52.21388183333333, 0.11001883333333334, '47.7', '12', '1']
$GNGGA,091623.00,5212.83283,N,00006.60122,E,1,12,0.89,47.6,M,45.7,M,,*7B

['09:16:23', 52.2138805, 0.11002033333333333, '47.6', '12', '1']
$GNGGA,091624.00,5212.83283,N,00006.60116,E,1,12,1.17,47.7,M,45.7,M,,*7C

['09:16:24', 52.2138805, 0.11001933333333333, '47.7', '12', '1']
$GNGGA,091625.00,5212.83282,N,00006.60110,E,1,12,1.17,47.9,M,45.7,M,,*74

['09:16:25', 52.213880333333336, 0.11001833333333333, '47.9', '12', '1']
$GNGGA,091626.00,5212.83283,N,00006.60102,E,1,12,1.02,48.0,M,45.7,M,,*77

['09:16:26', 52.2138805, 0.110017, '48.0', '12', '1']
$GNGGA,091627.00,5212.83283,N,00006.60097,E,1,12,1.02,48.1,M,45.7,M,,*7A

['09:16:27', 52.2138805, 0.11001616666666666, '48.1', '12', '1']
$GNGGA,091628.00,5212.83283,N,00006.60094,E,1,12,1.02,48.2,M,45.7,M,,*75

['09:16:28', 52.2138805, 0.11001566666666666, '48.2', '12', '1']
$GNGGA,091629.00,5212.83279,N,00006.60101,E,1,12,0.84,48.2,M,45.7,M,,*73

['09:16:29', 52.21387983333333, 0.11001683333333333, '48.2', '12', '1']
$GNGGA,091630.00,5212.83281,N,00006.60099,E,1,12,1.02,48.4,M,45.7,M,,*75

['09:16:30', 52.21388016666667, 0.1100165, '48.4', '12', '1']
$GNGGA,091631.00,5212.83283,N,00006.60098,E,1,12,1.02,48.5,M,45.7,M,,*76

['09:16:31', 52.2138805, 0.11001633333333333, '48.5', '12', '1']
$GNGGA,091632.00,5212.83284,N,00006.60096,E,1,12,1.02,48.6,M,45.7,M,,*7F

['09:16:32', 52.21388066666667, 0.11001599999999999, '48.6', '12', '1']
$GNGGA,091633.00,5212.83286,N,00006.60095,E,1,12,1.02,48.7,M,45.7,M,,*7E

['09:16:33', 52.213881, 0.11001583333333334, '48.7', '12', '1']
$GNGGA,091634.00,5212.83286,N,00006.60098,E,1,12,1.02,48.7,M,45.7,M,,*74

['09:16:34', 52.213881, 0.11001633333333333, '48.7', '12', '1']
$GNGGA,091635.00,5212.83287,N,00006.60107,E,1,12,1.02,48.7,M,45.7,M,,*73

['09:16:35', 52.21388116666667, 0.11001783333333333, '48.7', '12', '1']
$GNGGA,091636.00,5212.83287,N,00006.60113,E,1,12,1.24,48.7,M,45.7,M,,*71

['09:16:36', 52.21388116666667, 0.11001883333333334, '48.7', '12', '1']
$GNGGA,091637.00,5212.83289,N,00006.60115,E,1,12,1.14,48.8,M,45.7,M,,*74

['09:16:37', 52.2138815, 0.11001916666666665, '48.8', '12', '1']
$GNGGA,091638.00,5212.83290,N,00006.60117,E,1,12,1.14,48.8,M,45.7,M,,*71

['09:16:38', 52.213881666666666, 0.11001949999999999, '48.8', '12', '1']
$GNGGA,091639.00,5212.83295,N,00006.60113,E,1,12,1.14,48.9,M,45.7,M,,*70

['09:16:39', 52.2138825, 0.11001883333333334, '48.9', '12', '1']
$GNGGA,091640.00,5212.83299,N,00006.60112,E,1,12,1.14,49.0,M,45.7,M,,*7B

['09:16:40', 52.21388316666667, 0.11001866666666667, '49.0', '12', '1']
$GNGGA,091641.00,5212.83302,N,00006.60116,E,1,12,1.16,49.0,M,45.7,M,,*7F

['09:16:41', 52.21388366666667, 0.11001933333333333, '49.0', '12', '1']
$GNGGA,091642.00,5212.83305,N,00006.60118,E,1,12,1.04,49.0,M,45.7,M,,*76

['09:16:42', 52.213884166666666, 0.11001966666666667, '49.0', '12', '1']
$GNGGA,091643.00,5212.83307,N,00006.60123,E,1,12,1.04,49.0,M,45.7,M,,*7D

['09:16:43', 52.2138845, 0.11002050000000001, '49.0', '12', '1']
$GNGGA,091644.00,5212.83309,N,00006.60126,E,1,12,1.04,49.0,M,45.7,M,,*71

['09:16:44', 52.21388483333333, 0.110021, '49.0', '12', '1']
$GNGGA,091645.00,5212.83312,N,00006.60125,E,1,12,1.34,49.1,M,45.7,M,,*7B

['09:16:45', 52.21388533333333, 0.11002083333333333, '49.1', '12', '1']
$GNGGA,091646.00,5212.83313,N,00006.60138,E,1,12,1.66,49.0,M,45.7,M,,*73

['09:16:46', 52.2138855, 0.110023, '49.0', '12', '1']
$GNGGA,091647.00,5212.83313,N,00006.60150,E,1,12,1.50,49.0,M,45.7,M,,*79

['09:16:47', 52.2138855, 0.110025, '49.0', '12', '1']
$GNGGA,091648.00,5212.83314,N,00006.60156,E,1,12,1.50,48.9,M,45.7,M,,*7F

['09:16:48', 52.21388566666667, 0.110026, '48.9', '12', '1']
$GNGGA,091649.00,5212.83317,N,00006.60157,E,1,12,1.50,49.0,M,45.7,M,,*74

['09:16:49', 52.21388616666667, 0.11002616666666666, '49.0', '12', '1']
$GNGGA,091650.00,5212.83323,N,00006.60145,E,1,12,1.50,49.1,M,45.7,M,,*79

['09:16:50', 52.213887166666666, 0.11002416666666666, '49.1', '12', '1']
$GNGGA,091651.00,5212.83330,N,00006.60132,E,1,12,1.50,49.3,M,45.7,M,,*78

['09:16:51', 52.21388833333334, 0.11002200000000001, '49.3', '12', '1']
$GNGGA,091652.00,5212.83334,N,00006.60128,E,1,12,1.50,49.4,M,45.7,M,,*73

['09:16:52', 52.213889, 0.11002133333333333, '49.4', '12', '1']
$GNGGA,091653.00,5212.83337,N,00006.60134,E,1,12,1.50,49.4,M,45.7,M,,*7C

['09:16:53', 52.2138895, 0.11002233333333335, '49.4', '12', '1']
$GNGGA,091654.00,5212.83339,N,00006.60134,E,1,12,1.50,49.5,M,45.7,M,,*74

['09:16:54', 52.21388983333333, 0.11002233333333335, '49.5', '12', '1']
$GNGGA,091655.00,5212.83342,N,00006.60140,E,1,12,1.50,49.6,M,45.7,M,,*79

['09:16:55', 52.21389033333333, 0.11002333333333333, '49.6', '12', '1']
$GNGGA,091656.00,5212.83344,N,00006.60141,E,1,12,1.50,49.7,M,45.7,M,,*7C

['09:16:56', 52.213890666666664, 0.1100235, '49.7', '12', '1']
$GNGGA,091657.00,5212.83346,N,00006.60141,E,1,12,1.50,49.9,M,45.7,M,,*71

['09:16:57', 52.213891, 0.1100235, '49.9', '12', '1']
$GNGGA,091658.00,5212.83348,N,00006.60148,E,1,12,1.50,49.9,M,45.7,M,,*79

['09:16:58', 52.213891333333336, 0.11002466666666666, '49.9', '12', '1']
$GNGGA,091659.00,5212.83350,N,00006.60145,E,1,12,1.49,50.1,M,45.7,M,,*74

['09:16:59', 52.21389166666667, 0.11002416666666666, '50.1', '12', '1']
$GNGGA,091700.00,5212.83354,N,00006.60132,E,1,12,1.49,50.4,M,45.7,M,,*78

['09:17:00', 52.213892333333334, 0.11002200000000001, '50.4', '12', '1']
$GNGGA,091701.00,5212.83360,N,00006.60108,E,1,12,1.49,50.7,M,45.7,M,,*74

['09:17:01', 52.21389333333333, 0.11001799999999999, '50.7', '12', '1']
$GNGGA,091702.00,5212.83367,N,00006.60082,E,1,12,1.49,51.0,M,45.7,M,,*75

['09:17:02', 52.2138945, 0.11001366666666666, '51.0', '12', '1']
$GNGGA,091703.00,5212.83375,N,00006.60050,E,1,12,1.49,51.5,M,45.7,M,,*7D

['09:17:03', 52.21389583333333, 0.11000833333333333, '51.5', '12', '1']
$GNGGA,091704.00,5212.83376,N,00006.60040,E,1,12,0.92,51.6,M,45.7,M,,*7C

['09:17:04', 52.213896, 0.11000666666666666, '51.6', '12', '1']
$GNGGA,091705.00,5212.83375,N,00006.60025,E,1,12,0.92,51.7,M,45.7,M,,*7C

['09:17:05', 52.21389583333333, 0.11000416666666667, '51.7', '12', '1']
$GNGGA,091706.00,5212.83389,N,00006.59954,E,1,12,0.86,52.4,M,45.7,M,,*7C

['09:17:06', 52.21389816666667, 0.10999233333333333, '52.4', '12', '1']
$GNGGA,091707.00,5212.83403,N,00006.59883,E,1,12,0.94,53.0,M,45.7,M,,*75

['09:17:07', 52.2139005, 0.10998050000000001, '53.0', '12', '1']
$GNGGA,091708.00,5212.83409,N,00006.59843,E,1,12,0.94,53.4,M,45.7,M,,*78

['09:17:08', 52.2139015, 0.10997383333333333, '53.4', '12', '1']
$GNGGA,091709.00,5212.83410,N,00006.59815,E,1,12,0.94,53.7,M,45.7,M,,*71

['09:17:09', 52.213901666666665, 0.10996916666666667, '53.7', '12', '1']
$GNGGA,091710.00,5212.83406,N,00006.59814,E,1,12,1.04,53.7,M,45.7,M,,*77

['09:17:10', 52.213901, 0.109969, '53.7', '12', '1']
$GNGGA,091711.00,5212.83407,N,00006.59795,E,1,12,0.94,54.0,M,45.7,M,,*79

['09:17:11', 52.213901166666666, 0.10996583333333333, '54.0', '12', '1']
$GNGGA,091712.00,5212.83406,N,00006.59800,E,1,12,0.85,54.0,M,45.7,M,,*78

['09:17:12', 52.213901, 0.10996666666666667, '54.0', '12', '1']
$GNGGA,091713.00,5212.83404,N,00006.59802,E,1,12,0.85,54.1,M,45.7,M,,*78

['09:17:13', 52.21390066666667, 0.109967, '54.1', '12', '1']
$GNGGA,091714.00,5212.83402,N,00006.59795,E,1,12,0.85,54.2,M,45.7,M,,*7B

['09:17:14', 52.213900333333335, 0.10996583333333333, '54.2', '12', '1']
$GNGGA,091715.00,5212.83401,N,00006.59794,E,1,12,0.85,54.3,M,45.7,M,,*79

['09:17:15', 52.21390016666667, 0.10996566666666667, '54.3', '12', '1']
$GNGGA,091716.00,5212.83395,N,00006.59815,E,1,12,0.89,54.2,M,45.7,M,,*7B

['09:17:16', 52.213899166666664, 0.10996916666666667, '54.2', '12', '1']
$GNGGA,091717.00,5212.83390,N,00006.59839,E,1,12,0.89,54.0,M,45.7,M,,*73

['09:17:17', 52.21389833333333, 0.10997316666666666, '54.0', '12', '1']
$GNGGA,091718.00,5212.83385,N,00006.59863,E,1,12,0.89,53.8,M,45.7,M,,*78

['09:17:18', 52.2138975, 0.10997716666666667, '53.8', '12', '1']
$GNGGA,091719.00,5212.83382,N,00006.59879,E,1,12,0.89,53.7,M,45.7,M,,*7A

['09:17:19', 52.213897, 0.10997983333333333, '53.7', '12', '1']
$GNGGA,091720.00,5212.83378,N,00006.59896,E,1,12,0.89,53.5,M,45.7,M,,*76

['09:17:20', 52.21389633333333, 0.10998266666666666, '53.5', '12', '1']
$GNGGA,091721.00,5212.83376,N,00006.59903,E,1,12,0.81,53.3,M,45.7,M,,*7A

['09:17:21', 52.213896, 0.10998383333333334, '53.3', '12', '1']
$GNGGA,091722.00,5212.83374,N,00006.59905,E,1,12,0.81,53.1,M,45.7,M,,*7F

['09:17:22', 52.213895666666666, 0.10998416666666667, '53.1', '12', '1']
$GNGGA,091723.00,5212.83372,N,00006.59905,E,1,12,0.81,53.0,M,45.7,M,,*79

['09:17:23', 52.21389533333333, 0.10998416666666667, '53.0', '12', '1']
$GNGGA,091724.00,5212.83371,N,00006.59912,E,1,12,0.81,52.9,M,45.7,M,,*73

['09:17:24', 52.21389516666667, 0.10998533333333334, '52.9', '12', '1']
$GNGGA,091725.00,5212.83368,N,00006.59921,E,1,12,0.89,52.7,M,45.7,M,,*7C

['09:17:25', 52.21389466666667, 0.10998683333333334, '52.7', '12', '1']
$GNGGA,091726.00,5212.83368,N,00006.59920,E,1,12,0.81,52.7,M,45.7,M,,*76

['09:17:26', 52.21389466666667, 0.10998666666666666, '52.7', '12', '1']
$GNGGA,091727.00,5212.83369,N,00006.59914,E,1,12,0.81,52.7,M,45.7,M,,*71

['09:17:27', 52.213894833333335, 0.10998566666666668, '52.7', '12', '1']
$GNGGA,091728.00,5212.83369,N,00006.59911,E,1,12,0.79,52.7,M,45.7,M,,*7C

['09:17:28', 52.213894833333335, 0.10998516666666666, '52.7', '12', '1']
$GNGGA,091729.00,5212.83368,N,00006.59913,E,1,12,0.79,52.8,M,45.7,M,,*71

['09:17:29', 52.21389466666667, 0.1099855, '52.8', '12', '1']
$GNGGA,091730.00,5212.83369,N,00006.59909,E,1,12,0.79,52.8,M,45.7,M,,*73

['09:17:30', 52.213894833333335, 0.10998483333333334, '52.8', '12', '1']
$GNGGA,091731.00,5212.83369,N,00006.59898,E,1,12,0.79,52.8,M,45.7,M,,*7B

['09:17:31', 52.213894833333335, 0.109983, '52.8', '12', '1']
$GNGGA,091732.00,5212.83373,N,00006.59875,E,1,12,0.79,53.0,M,45.7,M,,*79

['09:17:32', 52.2138955, 0.10997916666666667, '53.0', '12', '1']
$GNGGA,091733.00,5212.83374,N,00006.59884,E,1,12,0.81,52.9,M,45.7,M,,*7E

['09:17:33', 52.213895666666666, 0.10998066666666667, '52.9', '12', '1']
$GNGGA,091734.00,5212.83374,N,00006.59890,E,1,12,0.79,52.8,M,45.7,M,,*7A

['09:17:34', 52.213895666666666, 0.10998166666666667, '52.8', '12', '1']
$GNGGA,091735.00,5212.83375,N,00006.59896,E,1,12,0.79,52.7,M,45.7,M,,*73

['09:17:35', 52.21389583333333, 0.10998266666666666, '52.7', '12', '1']
$GNGGA,091736.00,5212.83375,N,00006.59899,E,1,12,0.79,52.6,M,45.7,M,,*7E

['09:17:36', 52.21389583333333, 0.10998316666666666, '52.6', '12', '1']
$GNGGA,091737.00,5212.83377,N,00006.59891,E,1,12,0.79,52.6,M,45.7,M,,*75

['09:17:37', 52.213896166666665, 0.10998183333333333, '52.6', '12', '1']
$GNGGA,091738.00,5212.83379,N,00006.59880,E,1,12,0.79,52.6,M,45.7,M,,*74

['09:17:38', 52.2138965, 0.10998, '52.6', '12', '1']
$GNGGA,091739.00,5212.83383,N,00006.59860,E,1,12,0.77,52.7,M,45.7,M,,*71

['09:17:39', 52.21389716666667, 0.10997666666666667, '52.7', '12', '1']
$GNGGA,091740.00,5212.83385,N,00006.59849,E,1,12,0.77,52.7,M,45.7,M,,*72

['09:17:40', 52.2138975, 0.10997483333333333, '52.7', '12', '1']
$GNGGA,091741.00,5212.83386,N,00006.59853,E,1,12,0.77,52.7,M,45.7,M,,*7B

['09:17:41', 52.21389766666667, 0.1099755, '52.7', '12', '1']
$GNGGA,091742.00,5212.83387,N,00006.59856,E,1,12,0.81,52.6,M,45.7,M,,*74

['09:17:42', 52.213897833333334, 0.109976, '52.6', '12', '1']
$GNGGA,091743.00,5212.83387,N,00006.59861,E,1,12,0.81,52.6,M,45.7,M,,*71

['09:17:43', 52.213897833333334, 0.10997683333333333, '52.6', '12', '1']
$GNGGA,091744.00,5212.83390,N,00006.59859,E,1,12,0.81,52.6,M,45.7,M,,*7B

['09:17:44', 52.21389833333333, 0.10997649999999999, '52.6', '12', '1']
$GNGGA,091745.00,5212.83393,N,00006.59856,E,1,12,0.77,52.6,M,45.7,M,,*7F

['09:17:45', 52.21389883333333, 0.109976, '52.6', '12', '1']
$GNGGA,091746.00,5212.83393,N,00006.59853,E,1,12,0.82,52.6,M,45.7,M,,*73

['09:17:46', 52.21389883333333, 0.1099755, '52.6', '12', '1']
$GNGGA,091747.00,5212.83394,N,00006.59849,E,1,12,0.82,52.6,M,45.7,M,,*7E

['09:17:47', 52.213899, 0.10997483333333333, '52.6', '12', '1']
$GNGGA,091748.00,5212.83393,N,00006.59844,E,1,12,0.82,52.6,M,45.7,M,,*7B

['09:17:48', 52.21389883333333, 0.109974, '52.6', '12', '1']
$GNGGA,091749.00,5212.83393,N,00006.59835,E,1,12,0.82,52.5,M,45.7,M,,*7F

['09:17:49', 52.21389883333333, 0.1099725, '52.5', '12', '1']
$GNGGA,091750.00,5212.83390,N,00006.59831,E,1,12,0.82,52.5,M,45.7,M,,*70

['09:17:50', 52.21389833333333, 0.10997183333333332, '52.5', '12', '1']
$GNGGA,091751.00,5212.83387,N,00006.59830,E,1,12,0.77,52.3,M,45.7,M,,*7A

['09:17:51', 52.213897833333334, 0.10997166666666666, '52.3', '12', '1']
$GNGGA,091752.00,5212.83383,N,00006.59831,E,1,12,0.81,52.2,M,45.7,M,,*74

['09:17:52', 52.21389716666667, 0.10997183333333332, '52.2', '12', '1']
$GNGGA,091753.00,5212.83379,N,00006.59836,E,1,12,0.81,52.1,M,45.7,M,,*74

['09:17:53', 52.2138965, 0.10997266666666666, '52.1', '12', '1']
$GNGGA,091754.00,5212.83375,N,00006.59836,E,1,12,0.81,52.1,M,45.7,M,,*7F

['09:17:54', 52.21389583333333, 0.10997266666666666, '52.1', '12', '1']
$GNGGA,091755.00,5212.83371,N,00006.59834,E,1,12,0.81,52.0,M,45.7,M,,*79

['09:17:55', 52.21389516666667, 0.10997233333333334, '52.0', '12', '1']
$GNGGA,091756.00,5212.83367,N,00006.59834,E,1,12,0.81,52.0,M,45.7,M,,*7D

['09:17:56', 52.2138945, 0.10997233333333334, '52.0', '12', '1']
$GNGGA,091757.00,5212.83361,N,00006.59842,E,1,12,0.86,51.9,M,45.7,M,,*76

['09:17:57', 52.2138935, 0.10997366666666666, '51.9', '12', '1']
$GNGGA,091758.00,5212.83356,N,00006.59842,E,1,12,0.86,52.0,M,45.7,M,,*77

['09:17:58', 52.213892666666666, 0.10997366666666666, '52.0', '12', '1']
$GNGGA,091759.00,5212.83349,N,00006.59846,E,1,12,0.86,51.9,M,45.7,M,,*76

['09:17:59', 52.2138915, 0.10997433333333334, '51.9', '12', '1']
$GNGGA,091800.00,5212.83340,N,00006.59849,E,1,12,0.86,51.8,M,45.7,M,,*72

['09:18:00', 52.21389, 0.10997483333333333, '51.8', '12', '1']
$GNGGA,091801.00,5212.83333,N,00006.59852,E,1,12,0.86,51.7,M,45.7,M,,*72

['09:18:01', 52.213888833333336, 0.10997533333333333, '51.7', '12', '1']
$GNGGA,091802.00,5212.83326,N,00006.59850,E,1,12,0.86,51.6,M,45.7,M,,*76

['09:18:02', 52.213887666666665, 0.10997499999999999, '51.6', '12', '1']
$GNGGA,091803.00,5212.83317,N,00006.59849,E,1,12,0.86,51.5,M,45.7,M,,*7E

['09:18:03', 52.21388616666667, 0.10997483333333333, '51.5', '12', '1']
$GNGGA,091804.00,5212.83309,N,00006.59846,E,1,12,0.86,51.4,M,45.7,M,,*78

['09:18:04', 52.21388483333333, 0.10997433333333334, '51.4', '12', '1']
$GNGGA,091805.00,5212.83301,N,00006.59837,E,1,12,0.86,51.3,M,45.7,M,,*70

['09:18:05', 52.2138835, 0.10997283333333334, '51.3', '12', '1']
$GNGGA,091806.00,5212.83292,N,00006.59836,E,1,12,0.96,51.2,M,45.7,M,,*79

['09:18:06', 52.213882, 0.10997266666666666, '51.2', '12', '1']
$GNGGA,091807.00,5212.83284,N,00006.59827,E,1,12,0.96,51.1,M,45.7,M,,*7C

['09:18:07', 52.21388066666667, 0.10997116666666668, '51.1', '12', '1']
$GNGGA,091808.00,5212.83276,N,00006.59824,E,1,12,0.96,51.1,M,45.7,M,,*7D

['09:18:08', 52.21387933333333, 0.10997066666666666, '51.1', '12', '1']
$GNGGA,091809.00,5212.83269,N,00006.59824,E,1,12,0.88,51.0,M,45.7,M,,*7C

['09:18:09', 52.21387816666667, 0.10997066666666666, '51.0', '12', '1']
$GNGGA,091810.00,5212.83262,N,00006.59822,E,1,12,0.88,51.1,M,45.7,M,,*78

['09:18:10', 52.213877, 0.10997033333333334, '51.1', '12', '1']
$GNGGA,091811.00,5212.83256,N,00006.59822,E,1,12,0.88,51.1,M,45.7,M,,*7E

['09:18:11', 52.213876, 0.10997033333333334, '51.1', '12', '1']
$GNGGA,091812.00,5212.83252,N,00006.59822,E,1,12,0.88,51.1,M,45.7,M,,*79

['09:18:12', 52.213875333333334, 0.10997033333333334, '51.1', '12', '1']
$GNGGA,091813.00,5212.83248,N,00006.59820,E,1,12,0.88,51.2,M,45.7,M,,*72

['09:18:13', 52.21387466666667, 0.10997, '51.2', '12', '1']
$GNGGA,091814.00,5212.83246,N,00006.59817,E,1,12,0.89,51.3,M,45.7,M,,*7F

['09:18:14', 52.21387433333334, 0.1099695, '51.3', '12', '1']
$GNGGA,091815.00,5212.83245,N,00006.59815,E,1,12,0.89,51.4,M,45.7,M,,*78

['09:18:15', 52.21387416666666, 0.10996916666666667, '51.4', '12', '1']
$GNGGA,091816.00,5212.83245,N,00006.59813,E,1,12,0.88,51.5,M,45.7,M,,*7D

['09:18:16', 52.21387416666666, 0.10996883333333334, '51.5', '12', '1']
$GNGGA,091817.00,5212.83246,N,00006.59809,E,1,12,0.88,51.7,M,45.7,M,,*76

['09:18:17', 52.21387433333334, 0.10996816666666667, '51.7', '12', '1']
$GNGGA,091818.00,5212.83247,N,00006.59808,E,1,12,0.96,51.8,M,45.7,M,,*79

['09:18:18', 52.2138745, 0.10996800000000001, '51.8', '12', '1']
$GNGGA,091819.00,5212.83248,N,00006.59801,E,1,12,0.86,52.0,M,45.7,M,,*74

['09:18:19', 52.21387466666667, 0.10996683333333333, '52.0', '12', '1']
$GNGGA,091820.00,5212.83248,N,00006.59798,E,1,12,0.88,52.0,M,45.7,M,,*7F

['09:18:20', 52.21387466666667, 0.10996633333333333, '52.0', '12', '1']
$GNGGA,091821.00,5212.83248,N,00006.59792,E,1,12,0.88,52.1,M,45.7,M,,*75

['09:18:21', 52.21387466666667, 0.10996533333333333, '52.1', '12', '1']
$GNGGA,091822.00,5212.83251,N,00006.59768,E,1,12,0.81,52.3,M,45.7,M,,*70

['09:18:22', 52.21387516666667, 0.10996133333333334, '52.3', '12', '1']
$GNGGA,091823.00,5212.83251,N,00006.59752,E,1,12,1.08,52.5,M,45.7,M,,*7E

['09:18:23', 52.21387516666667, 0.10995866666666668, '52.5', '12', '1']
$GNGGA,091824.00,5212.83252,N,00006.59739,E,1,12,1.08,52.6,M,45.7,M,,*74

['09:18:24', 52.213875333333334, 0.1099565, '52.6', '12', '1']
$GNGGA,091825.00,5212.83251,N,00006.59740,E,1,12,1.08,52.7,M,45.7,M,,*79

['09:18:25', 52.21387516666667, 0.10995666666666667, '52.7', '12', '1']
$GNGGA,091826.00,5212.83250,N,00006.59738,E,1,12,1.08,52.8,M,45.7,M,,*7B

['09:18:26', 52.213875, 0.10995633333333334, '52.8', '12', '1']
$GNGGA,091827.00,5212.83250,N,00006.59743,E,1,12,1.10,52.9,M,45.7,M,,*7E

['09:18:27', 52.213875, 0.10995716666666668, '52.9', '12', '1']
$GNGGA,091828.00,5212.83249,N,00006.59752,E,1,12,1.10,52.9,M,45.7,M,,*79

['09:18:28', 52.213874833333335, 0.10995866666666668, '52.9', '12', '1']
$GNGGA,091829.00,5212.83249,N,00006.59759,E,1,12,1.10,53.0,M,45.7,M,,*7B

['09:18:29', 52.213874833333335, 0.10995983333333334, '53.0', '12', '1']
$GNGGA,091830.00,5212.83250,N,00006.59768,E,1,12,1.10,53.0,M,45.7,M,,*79

['09:18:30', 52.213875, 0.10996133333333334, '53.0', '12', '1']
$GNGGA,091831.00,5212.83249,N,00006.59776,E,1,12,1.10,53.0,M,45.7,M,,*7F

['09:18:31', 52.213874833333335, 0.10996266666666667, '53.0', '12', '1']
$GNGGA,091832.00,5212.83248,N,00006.59781,E,1,12,1.10,53.0,M,45.7,M,,*75

['09:18:32', 52.21387466666667, 0.1099635, '53.0', '12', '1']
$GNGGA,091833.00,5212.83249,N,00006.59782,E,1,12,1.10,53.1,M,45.7,M,,*77

['09:18:33', 52.213874833333335, 0.10996366666666665, '53.1', '12', '1']
$GNGGA,091834.00,5212.83250,N,00006.59783,E,1,12,1.10,53.2,M,45.7,M,,*7A

['09:18:34', 52.213875, 0.10996383333333333, '53.2', '12', '1']
$GNGGA,091835.00,5212.83251,N,00006.59785,E,1,12,1.10,53.2,M,45.7,M,,*7C

['09:18:35', 52.21387516666667, 0.10996416666666667, '53.2', '12', '1']
$GNGGA,091836.00,5212.83252,N,00006.59793,E,1,12,1.10,53.2,M,45.7,M,,*7B

['09:18:36', 52.213875333333334, 0.1099655, '53.2', '12', '1']
$GNGGA,091837.00,5212.83256,N,00006.59791,E,1,12,1.10,53.4,M,45.7,M,,*7A

['09:18:37', 52.213876, 0.10996516666666666, '53.4', '12', '1']
$GNGGA,091838.00,5212.83257,N,00006.59800,E,1,12,1.11,53.5,M,45.7,M,,*73

['09:18:38', 52.213876166666665, 0.10996666666666667, '53.5', '12', '1']
$GNGGA,091839.00,5212.83259,N,00006.59805,E,1,12,1.10,53.6,M,45.7,M,,*7B

['09:18:39', 52.2138765, 0.1099675, '53.6', '12', '1']
$GNGGA,091840.00,5212.83261,N,00006.59810,E,1,12,1.10,53.6,M,45.7,M,,*7A

['09:18:40', 52.21387683333333, 0.10996833333333332, '53.6', '12', '1']
$GNGGA,091841.00,5212.83261,N,00006.59818,E,1,12,1.10,53.6,M,45.7,M,,*73

['09:18:41', 52.21387683333333, 0.10996966666666667, '53.6', '12', '1']
$GNGGA,091842.00,5212.83265,N,00006.59818,E,1,12,0.83,53.7,M,45.7,M,,*7E

['09:18:42', 52.2138775, 0.10996966666666667, '53.7', '12', '1']
$GNGGA,091843.00,5212.83270,N,00006.59817,E,1,12,0.83,53.9,M,45.7,M,,*7A

['09:18:43', 52.213878333333334, 0.1099695, '53.9', '12', '1']
$GNGGA,091844.00,5212.83270,N,00006.59825,E,1,12,0.83,54.0,M,45.7,M,,*72

['09:18:44', 52.213878333333334, 0.10997083333333334, '54.0', '12', '1']
$GNGGA,091845.00,5212.83268,N,00006.59841,E,1,12,0.83,53.9,M,45.7,M,,*76

['09:18:45', 52.213878, 0.1099735, '53.9', '12', '1']
$GNGGA,091846.00,5212.83264,N,00006.59863,E,1,12,0.83,53.9,M,45.7,M,,*79

['09:18:46', 52.213877333333336, 0.10997716666666667, '53.9', '12', '1']
$GNGGA,091847.00,5212.83261,N,00006.59876,E,1,12,0.91,53.9,M,45.7,M,,*7A

['09:18:47', 52.21387683333333, 0.10997933333333335, '53.9', '12', '1']
$GNGGA,091848.00,5212.83259,N,00006.59889,E,1,12,0.91,53.8,M,45.7,M,,*7F

['09:18:48', 52.2138765, 0.1099815, '53.8', '12', '1']
$GNGGA,091849.00,5212.83258,N,00006.59894,E,1,12,0.91,53.9,M,45.7,M,,*72

['09:18:49', 52.21387633333333, 0.10998233333333333, '53.9', '12', '1']
$GNGGA,091850.00,5212.83259,N,00006.59897,E,1,12,0.91,53.9,M,45.7,M,,*78

['09:18:50', 52.2138765, 0.10998283333333332, '53.9', '12', '1']
$GNGGA,091851.00,5212.83259,N,00006.59899,E,1,12,0.91,54.0,M,45.7,M,,*79

['09:18:51', 52.2138765, 0.10998316666666666, '54.0', '12', '1']
$GNGGA,091852.00,5212.83267,N,00006.59876,E,1,12,0.85,54.2,M,45.7,M,,*71

['09:18:52', 52.213877833333335, 0.10997933333333335, '54.2', '12', '1']
$GNGGA,091853.00,5212.83270,N,00006.59875,E,1,12,0.91,54.2,M,45.7,M,,*70

['09:18:53', 52.213878333333334, 0.10997916666666667, '54.2', '12', '1']
$GNGGA,091854.00,5212.83277,N,00006.59860,E,1,12,0.85,54.2,M,45.7,M,,*71

['09:18:54', 52.2138795, 0.10997666666666667, '54.2', '12', '1']
$GNGGA,091855.00,5212.83284,N,00006.59838,E,1,12,0.85,54.3,M,45.7,M,,*70

['09:18:55', 52.21388066666667, 0.109973, '54.3', '12', '1']
$GNGGA,091856.00,5212.83288,N,00006.59823,E,1,12,0.78,54.3,M,45.7,M,,*77

['09:18:56', 52.21388133333333, 0.1099705, '54.3', '12', '1']
$GNGGA,091857.00,5212.83295,N,00006.59801,E,1,12,0.78,54.3,M,45.7,M,,*7A

['09:18:57', 52.2138825, 0.10996683333333333, '54.3', '12', '1']
$GNGGA,091858.00,5212.83303,N,00006.59775,E,1,12,0.78,54.4,M,45.7,M,,*70

['09:18:58', 52.213883833333334, 0.10996249999999999, '54.4', '12', '1']
$GNGGA,091859.00,5212.83313,N,00006.59750,E,1,12,0.72,54.5,M,45.7,M,,*7C

['09:18:59', 52.2138855, 0.10995833333333334, '54.5', '12', '1']
$GNGGA,091900.00,5212.83320,N,00006.59729,E,1,12,0.72,54.6,M,45.7,M,,*7C

['09:19:00', 52.21388666666667, 0.10995483333333333, '54.6', '12', '1']
$GNGGA,091901.00,5212.83328,N,00006.59703,E,1,12,0.70,54.7,M,45.7,M,,*7E

['09:19:01', 52.213888, 0.1099505, '54.7', '12', '1']
$GNGGA,091902.00,5212.83336,N,00006.59676,E,1,12,0.70,54.8,M,45.7,M,,*7E

['09:19:02', 52.213889333333334, 0.109946, '54.8', '12', '1']
$GNGGA,091903.00,5212.83331,N,00006.59691,E,1,12,0.74,54.6,M,45.7,M,,*7B

['09:19:03', 52.2138885, 0.1099485, '54.6', '12', '1']
$GNGGA,091904.00,5212.83327,N,00006.59694,E,1,12,0.70,54.4,M,45.7,M,,*78

['09:19:04', 52.21388783333333, 0.109949, '54.4', '12', '1']
$GNGGA,091905.00,5212.83326,N,00006.59691,E,1,12,0.70,54.3,M,45.7,M,,*7A

['09:19:05', 52.213887666666665, 0.1099485, '54.3', '12', '1']
$GNGGA,091906.00,5212.83325,N,00006.59687,E,1,12,0.72,54.2,M,45.7,M,,*7E

['09:19:06', 52.2138875, 0.10994783333333333, '54.2', '12', '1']
$GNGGA,091907.00,5212.83324,N,00006.59680,E,1,12,0.84,54.1,M,45.7,M,,*73

['09:19:07', 52.21388733333333, 0.10994666666666666, '54.1', '12', '1']
$GNGGA,091908.00,5212.83325,N,00006.59672,E,1,12,0.84,54.1,M,45.7,M,,*70

['09:19:08', 52.2138875, 0.10994533333333334, '54.1', '12', '1']
$GNGGA,091909.00,5212.83326,N,00006.59659,E,1,12,0.84,54.1,M,45.7,M,,*7B

['09:19:09', 52.213887666666665, 0.10994316666666666, '54.1', '12', '1']
$GNGGA,091910.00,5212.83329,N,00006.59641,E,1,12,0.84,54.2,M,45.7,M,,*76

['09:19:10', 52.21388816666666, 0.10994016666666666, '54.2', '12', '1']
$GNGGA,091911.00,5212.83333,N,00006.59623,E,1,12,0.84,54.3,M,45.7,M,,*79

['09:19:11', 52.213888833333336, 0.10993716666666667, '54.3', '12', '1']
$GNGGA,091912.00,5212.83335,N,00006.59606,E,1,12,0.84,54.3,M,45.7,M,,*7B

['09:19:12', 52.21388916666667, 0.10993433333333333, '54.3', '12', '1']
$GNGGA,091913.00,5212.83339,N,00006.59590,E,1,12,0.84,54.4,M,45.7,M,,*7D

['09:19:13', 52.21388983333333, 0.10993166666666668, '54.4', '12', '1']
$GNGGA,091914.00,5212.83342,N,00006.59576,E,1,12,0.78,54.4,M,45.7,M,,*7D

['09:19:14', 52.21389033333333, 0.10992933333333334, '54.4', '12', '1']
$GNGGA,091915.00,5212.83346,N,00006.59561,E,1,12,0.84,54.4,M,45.7,M,,*7D

['09:19:15', 52.213891, 0.10992683333333333, '54.4', '12', '1']
$GNGGA,091916.00,5212.83349,N,00006.59548,E,1,12,0.84,54.5,M,45.7,M,,*7B

['09:19:16', 52.2138915, 0.10992466666666667, '54.5', '12', '1']
$GNGGA,091917.00,5212.83351,N,00006.59539,E,1,12,0.84,54.4,M,45.7,M,,*74

['09:19:17', 52.213891833333335, 0.10992316666666667, '54.4', '12', '1']
$GNGGA,091918.00,5212.83354,N,00006.59533,E,1,12,0.78,54.4,M,45.7,M,,*77

['09:19:18', 52.213892333333334, 0.10992216666666667, '54.4', '12', '1']
$GNGGA,091919.00,5212.83357,N,00006.59525,E,1,12,0.84,54.4,M,45.7,M,,*71

['09:19:19', 52.21389283333333, 0.10992083333333333, '54.4', '12', '1']
$GNGGA,091920.00,5212.83362,N,00006.59515,E,1,12,0.84,54.5,M,45.7,M,,*7F

['09:19:20', 52.213893666666664, 0.10991916666666667, '54.5', '12', '1']
$GNGGA,091921.00,5212.83368,N,00006.59506,E,1,12,0.84,54.5,M,45.7,M,,*76

['09:19:21', 52.21389466666667, 0.10991766666666666, '54.5', '12', '1']
$GNGGA,091922.00,5212.83375,N,00006.59489,E,1,12,0.84,54.6,M,45.7,M,,*7C

['09:19:22', 52.21389583333333, 0.10991483333333334, '54.6', '12', '1']
$GNGGA,091923.00,5212.83381,N,00006.59471,E,1,12,0.84,54.7,M,45.7,M,,*70

['09:19:23', 52.21389683333334, 0.10991183333333333, '54.7', '12', '1']
$GNGGA,091924.00,5212.83387,N,00006.59458,E,1,12,0.78,54.8,M,45.7,M,,*76

['09:19:24', 52.213897833333334, 0.10990966666666666, '54.8', '12', '1']
$GNGGA,091925.00,5212.83393,N,00006.59441,E,1,12,0.84,54.8,M,45.7,M,,*79

['09:19:25', 52.21389883333333, 0.10990683333333333, '54.8', '12', '1']
$GNGGA,091926.00,5212.83399,N,00006.59430,E,1,12,0.84,54.9,M,45.7,M,,*77

['09:19:26', 52.213899833333336, 0.10990499999999999, '54.9', '12', '1']
$GNGGA,091927.00,5212.83404,N,00006.59418,E,1,12,0.84,54.9,M,45.7,M,,*7F

['09:19:27', 52.21390066666667, 0.109903, '54.9', '12', '1']
$GNGGA,091928.00,5212.83410,N,00006.59414,E,1,12,0.84,54.9,M,45.7,M,,*79

['09:19:28', 52.213901666666665, 0.10990233333333334, '54.9', '12', '1']
$GNGGA,091929.00,5212.83414,N,00006.59407,E,1,12,0.84,54.9,M,45.7,M,,*7E

['09:19:29', 52.21390233333333, 0.10990116666666667, '54.9', '12', '1']
$GNGGA,091930.00,5212.83418,N,00006.59403,E,1,12,0.84,54.9,M,45.7,M,,*7E

['09:19:30', 52.213903, 0.1099005, '54.9', '12', '1']
$GNGGA,091931.00,5212.83421,N,00006.59402,E,1,12,0.84,54.9,M,45.7,M,,*74

['09:19:31', 52.2139035, 0.10990033333333334, '54.9', '12', '1']
$GNGGA,091932.00,5212.83425,N,00006.59400,E,1,12,0.84,54.9,M,45.7,M,,*71

['09:19:32', 52.213904166666666, 0.10990000000000001, '54.9', '12', '1']
$GNGGA,091933.00,5212.83429,N,00006.59403,E,1,12,0.84,54.9,M,45.7,M,,*7F

['09:19:33', 52.21390483333333, 0.1099005, '54.9', '12', '1']
$GNGGA,091934.00,5212.83433,N,00006.59399,E,1,12,0.84,54.9,M,45.7,M,,*77

['09:19:34', 52.2139055, 0.10989983333333334, '54.9', '12', '1']
$GNGGA,091935.00,5212.83435,N,00006.59396,E,1,12,0.84,55.0,M,45.7,M,,*77

['09:19:35', 52.213905833333335, 0.10989933333333333, '55.0', '12', '1']
$GNGGA,091936.00,5212.83436,N,00006.59385,E,1,12,0.78,55.1,M,45.7,M,,*77

['09:19:36', 52.213906, 0.1098975, '55.1', '12', '1']
$GNGGA,091937.00,5212.83436,N,00006.59374,E,1,12,0.78,55.2,M,45.7,M,,*7B

['09:19:37', 52.213906, 0.10989566666666667, '55.2', '12', '1']
$GNGGA,091938.00,5212.83435,N,00006.59371,E,1,12,0.79,55.3,M,45.7,M,,*72

['09:19:38', 52.213905833333335, 0.10989516666666667, '55.3', '12', '1']
$GNGGA,091939.00,5212.83433,N,00006.59362,E,1,12,0.81,55.4,M,45.7,M,,*77

['09:19:39', 52.2139055, 0.10989366666666665, '55.4', '12', '1']
$GNGGA,091940.00,5212.83430,N,00006.59358,E,1,12,0.79,55.4,M,45.7,M,,*74

['09:19:40', 52.213905, 0.109893, '55.4', '12', '1']
$GNGGA,091941.00,5212.83427,N,00006.59352,E,1,12,0.79,55.5,M,45.7,M,,*78

['09:19:41', 52.2139045, 0.109892, '55.5', '12', '1']
$GNGGA,091942.00,5212.83422,N,00006.59349,E,1,12,0.88,55.5,M,45.7,M,,*7A

['09:19:42', 52.21390366666667, 0.1098915, '55.5', '12', '1']
$GNGGA,091943.00,5212.83416,N,00006.59348,E,1,12,0.79,55.5,M,45.7,M,,*73

['09:19:43', 52.21390266666667, 0.10989133333333333, '55.5', '12', '1']
$GNGGA,091944.00,5212.83410,N,00006.59348,E,1,12,0.79,55.5,M,45.7,M,,*72

['09:19:44', 52.213901666666665, 0.10989133333333333, '55.5', '12', '1']
$GNGGA,091945.00,5212.83403,N,00006.59346,E,1,12,0.88,55.5,M,45.7,M,,*71

['09:19:45', 52.2139005, 0.109891, '55.5', '12', '1']
$GNGGA,091946.00,5212.83396,N,00006.59354,E,1,12,0.77,55.5,M,45.7,M,,*7A

['09:19:46', 52.21389933333333, 0.10989233333333333, '55.5', '12', '1']
$GNGGA,091947.00,5212.83388,N,00006.59361,E,1,12,0.77,55.5,M,45.7,M,,*72

['09:19:47', 52.213898, 0.1098935, '55.5', '12', '1']
$GNGGA,091948.00,5212.83381,N,00006.59369,E,1,12,0.89,55.5,M,45.7,M,,*7D

['09:19:48', 52.21389683333334, 0.10989483333333333, '55.5', '12', '1']
$GNGGA,091949.00,5212.83375,N,00006.59378,E,1,12,0.89,55.4,M,45.7,M,,*76

['09:19:49', 52.21389583333333, 0.10989633333333333, '55.4', '12', '1']
$GNGGA,091950.00,5212.83368,N,00006.59386,E,1,12,0.89,55.4,M,45.7,M,,*73

['09:19:50', 52.21389466666667, 0.10989766666666667, '55.4', '12', '1']
$GNGGA,091951.00,5212.83365,N,00006.59386,E,1,12,1.25,55.5,M,45.7,M,,*79

['09:19:51', 52.21389416666667, 0.10989766666666667, '55.5', '12', '1']
$GNGGA,091952.00,5212.83358,N,00006.59395,E,1,12,0.77,55.5,M,45.7,M,,*70

['09:19:52', 52.213893, 0.10989916666666667, '55.5', '12', '1']
$GNGGA,091953.00,5212.83355,N,00006.59396,E,1,12,0.93,55.6,M,45.7,M,,*76

['09:19:53', 52.2138925, 0.10989933333333333, '55.6', '12', '1']
$GNGGA,091954.00,5212.83348,N,00006.59401,E,1,12,0.89,55.6,M,45.7,M,,*7F

['09:19:54', 52.213891333333336, 0.10990016666666666, '55.6', '12', '1']
$GNGGA,091955.00,5212.83340,N,00006.59410,E,1,12,0.77,55.6,M,45.7,M,,*77

['09:19:55', 52.21389, 0.10990166666666666, '55.6', '12', '1']
$GNGGA,091956.00,5212.83333,N,00006.59412,E,1,12,0.75,55.6,M,45.7,M,,*70

['09:19:56', 52.213888833333336, 0.109902, '55.6', '12', '1']
$GNGGA,091957.00,5212.83326,N,00006.59419,E,1,12,0.85,55.6,M,45.7,M,,*71

['09:19:57', 52.213887666666665, 0.10990316666666668, '55.6', '12', '1']
$GNGGA,091958.00,5212.83319,N,00006.59427,E,1,12,0.75,55.5,M,45.7,M,,*73

['09:19:58', 52.2138865, 0.1099045, '55.5', '12', '1']
$GNGGA,091959.00,5212.83312,N,00006.59438,E,1,12,0.75,55.5,M,45.7,M,,*77

['09:19:59', 52.21388533333333, 0.10990633333333334, '55.5', '12', '1']
$GNGGA,092000.00,5212.83305,N,00006.59449,E,1,12,0.85,55.4,M,45.7,M,,*7F

['09:20:00', 52.213884166666666, 0.10990816666666667, '55.4', '12', '1']
$GNGGA,092001.00,5212.83299,N,00006.59460,E,1,12,0.85,55.4,M,45.7,M,,*71

['09:20:01', 52.21388316666667, 0.10991, '55.4', '12', '1']
$GNGGA,092002.00,5212.83294,N,00006.59475,E,1,12,0.85,55.3,M,45.7,M,,*7C

['09:20:02', 52.21388233333333, 0.10991250000000001, '55.3', '12', '1']
$GNGGA,092003.00,5212.83290,N,00006.59491,E,1,12,0.85,55.2,M,45.7,M,,*72

['09:20:03', 52.213881666666666, 0.10991516666666666, '55.2', '12', '1']
$GNGGA,092004.00,5212.83286,N,00006.59511,E,1,12,0.85,55.1,M,45.7,M,,*78

['09:20:04', 52.213881, 0.1099185, '55.1', '12', '1']
$GNGGA,092005.00,5212.83284,N,00006.59526,E,1,12,0.85,55.0,M,45.7,M,,*7E

['09:20:05', 52.21388066666667, 0.10992099999999999, '55.0', '12', '1']
$GNGGA,092006.00,5212.83284,N,00006.59543,E,1,12,0.85,55.0,M,45.7,M,,*7E

['09:20:06', 52.21388066666667, 0.10992383333333335, '55.0', '12', '1']
$GNGGA,092007.00,5212.83284,N,00006.59560,E,1,12,0.85,54.9,M,45.7,M,,*76

['09:20:07', 52.21388066666667, 0.10992666666666667, '54.9', '12', '1']
$GNGGA,092008.00,5212.83287,N,00006.59571,E,1,12,1.19,54.9,M,45.7,M,,*7E

['09:20:08', 52.21388116666667, 0.10992850000000001, '54.9', '12', '1']
$GNGGA,092009.00,5212.83286,N,00006.59591,E,1,12,0.85,54.9,M,45.7,M,,*74

['09:20:09', 52.213881, 0.10993183333333333, '54.9', '12', '1']
$GNGGA,092010.00,5212.83286,N,00006.59602,E,1,12,0.85,54.9,M,45.7,M,,*75

['09:20:10', 52.213881, 0.10993366666666667, '54.9', '12', '1']
$GNGGA,092011.00,5212.83285,N,00006.59620,E,1,12,0.85,54.8,M,45.7,M,,*76

['09:20:11', 52.213880833333334, 0.10993666666666665, '54.8', '12', '1']
$GNGGA,092012.00,5212.83285,N,00006.59635,E,1,12,0.85,54.8,M,45.7,M,,*71

['09:20:12', 52.213880833333334, 0.10993916666666667, '54.8', '12', '1']
$GNGGA,092013.00,5212.83284,N,00006.59653,E,1,12,0.85,54.8,M,45.7,M,,*71

['09:20:13', 52.21388066666667, 0.10994216666666666, '54.8', '12', '1']
$GNGGA,092014.00,5212.83284,N,00006.59665,E,1,12,0.75,54.8,M,45.7,M,,*7C

['09:20:14', 52.21388066666667, 0.10994416666666668, '54.8', '12', '1']
$GNGGA,092015.00,5212.83285,N,00006.59677,E,1,12,0.75,54.8,M,45.7,M,,*7F

['09:20:15', 52.213880833333334, 0.10994616666666666, '54.8', '12', '1']
$GNGGA,092016.00,5212.83289,N,00006.59685,E,1,12,0.75,54.9,M,45.7,M,,*7C

['09:20:16', 52.2138815, 0.1099475, '54.9', '12', '1']
$GNGGA,092017.00,5212.83294,N,00006.59698,E,1,12,1.19,55.0,M,45.7,M,,*7E

['09:20:17', 52.21388233333333, 0.10994966666666667, '55.0', '12', '1']
$GNGGA,092018.00,5212.83298,N,00006.59713,E,1,12,1.19,55.0,M,45.7,M,,*7F

['09:20:18', 52.213883, 0.10995216666666667, '55.0', '12', '1']
$GNGGA,092019.00,5212.83301,N,00006.59724,E,1,12,1.19,54.9,M,45.7,M,,*73

['09:20:19', 52.2138835, 0.10995400000000001, '54.9', '12', '1']
$GNGGA,092020.00,5212.83306,N,00006.59723,E,1,12,0.83,55.0,M,45.7,M,,*73

['09:20:20', 52.21388433333333, 0.10995383333333333, '55.0', '12', '1']
$GNGGA,092021.00,5212.83310,N,00006.59724,E,1,12,0.75,55.1,M,45.7,M,,*7A

['09:20:21', 52.213885, 0.10995400000000001, '55.1', '12', '1']
$GNGGA,092022.00,5212.83311,N,00006.59733,E,1,12,0.91,55.1,M,45.7,M,,*74

['09:20:22', 52.213885166666664, 0.10995550000000001, '55.1', '12', '1']
$GNGGA,092023.00,5212.83312,N,00006.59739,E,1,12,0.83,55.1,M,45.7,M,,*7F

['09:20:23', 52.21388533333333, 0.1099565, '55.1', '12', '1']
$GNGGA,092024.00,5212.83310,N,00006.59750,E,1,12,0.71,55.1,M,45.7,M,,*78

['09:20:24', 52.213885, 0.10995833333333334, '55.1', '12', '1']
$GNGGA,092025.00,5212.83307,N,00006.59763,E,1,12,0.76,55.1,M,45.7,M,,*78

['09:20:25', 52.2138845, 0.10996049999999999, '55.1', '12', '1']
$GNGGA,092026.00,5212.83303,N,00006.59778,E,1,12,0.76,55.0,M,45.7,M,,*74

