
['16:02:47', 0.0, 0.0, '', '00', '0']
$GNGGA,160248.00,,,,,0,00,99.99,,,,,,*71

['16:02:48', 0.0, 0.0, '', '00', '0']
$GNGGA,160249.00,,,,,0,00,99.99,,,,,,*70

['16:02:49', 0.0, 0.0, '', '00', '0']
$GNGGA,160250.00,,,,,0,00,99.99,,,,,,*78

['16:02:50', 0.0, 0.0, '', '00', '0']
$GNGGA,160251.00,,,,,0,00,99.99,,,,,,*79

['16:02:51', 0.0, 0.0, '', '00', '0']
$GNGGA,160252.00,,,,,0,00,99.99,,,,,,*7A

['16:02:52', 0.0, 0.0, '', '00', '0']
$GNGGA,160253.00,,,,,0,00,99.99,,,,,,*7B

['16:02:53', 0.0, 0.0, '', '00', '0']
$GNGGA,160254.00,,,,,0,00,99.99,,,,,,*7C

['16:02:54', 0.0, 0.0, '', '00', '0']
$GNGGA,160255.00,5212.79096,N,00006.64100,E,1,05,2.53,25.9,M,45.7,M,,*7E

['16:02:55', 52.21318266666667, 0.11068333333333333, '25.9', '05', '1']
$GNGGA,160256.00,5212.79096,N,00006.64249,E,1,05,2.53,26.5,M,45.7,M,,*7C

['16:02:56', 52.21318266666667, 0.11070816666666666, '26.5', '05', '1']
$GNGGA,160257.00,5212.79122,N,00006.64374,E,1,05,2.53,26.8,M,45.7,M,,*71

['16:02:57', 52.213187, 0.11072900000000001, '26.8', '05', '1']
$GNGGA,160258.00,5212.79145,N,00006.64453,E,1,05,2.53,27.2,M,45.7,M,,*76

['16:02:58', 52.213190833333336, 0.11074216666666666, '27.2', '05', '1']
$GNGGA,160259.00,5212.79171,N,00006.64490,E,1,05,2.53,27.7,M,45.7,M,,*7A

['16:02:59', 52.213195166666665, 0.11074833333333332, '27.7', '05', '1']
$GNGGA,160300.00,5212.79195,N,00006.64511,E,1,05,2.53,27.8,M,45.7,M,,*7A

['16:03:00', 52.21319916666667, 0.11075183333333333, '27.8', '05', '1']
$GNGGA,160301.00,5212.79219,N,00006.64522,E,1,05,2.53,27.4,M,45.7,M,,*70

['16:03:01', 52.213203166666666, 0.11075366666666667, '27.4', '05', '1']
$GNGGA,160302.00,5212.79257,N,00006.64555,E,1,06,1.43,25.9,M,45.7,M,,*77

['16:03:02', 52.2132095, 0.11075916666666667, '25.9', '06', '1']
$GNGGA,160303.00,5212.79291,N,00006.64574,E,1,07,1.29,24.1,M,45.7,M,,*7B

['16:03:03', 52.213215166666664, 0.11076233333333334, '24.1', '07', '1']
$GNGGA,160304.00,5212.79320,N,00006.64588,E,1,07,1.29,26.0,M,45.7,M,,*77

['16:03:04', 52.21322, 0.11076466666666666, '26.0', '07', '1']
$GNGGA,160305.00,5212.79344,N,00006.64597,E,1,08,1.28,26.7,M,45.7,M,,*73

['16:03:05', 52.213224, 0.11076616666666667, '26.7', '08', '1']
$GNGGA,160306.00,5212.79351,N,00006.64603,E,1,08,1.28,26.0,M,45.7,M,,*7D

['16:03:06', 52.21322516666667, 0.11076716666666667, '26.0', '08', '1']
$GNGGA,160307.00,5212.79354,N,00006.64609,E,1,08,1.28,25.6,M,45.7,M,,*76

['16:03:07', 52.213225666666666, 0.11076816666666667, '25.6', '08', '1']
$GNGGA,160308.00,5212.79357,N,00006.64619,E,1,08,1.28,25.2,M,45.7,M,,*7F

['16:03:08', 52.213226166666665, 0.11076983333333333, '25.2', '08', '1']
$GNGGA,160309.00,5212.79358,N,00006.64624,E,1,09,1.19,25.0,M,45.7,M,,*7E

['16:03:09', 52.21322633333333, 0.11077066666666666, '25.0', '09', '1']
$GNGGA,160310.00,5212.79358,N,00006.64626,E,1,09,1.19,24.9,M,45.7,M,,*7C

['16:03:10', 52.21322633333333, 0.110771, '24.9', '09', '1']
$GNGGA,160311.00,5212.79359,N,00006.64628,E,1,09,1.19,24.7,M,45.7,M,,*7C

['16:03:11', 52.2132265, 0.11077133333333333, '24.7', '09', '1']
$GNGGA,160312.00,5212.79361,N,00006.64629,E,1,09,1.19,24.7,M,45.7,M,,*75

['16:03:12', 52.21322683333333, 0.1107715, '24.7', '09', '1']
$GNGGA,160313.00,5212.79363,N,00006.64631,E,1,09,1.19,24.6,M,45.7,M,,*7E

['16:03:13', 52.21322716666667, 0.11077183333333333, '24.6', '09', '1']
$GNGGA,160314.00,5212.79365,N,00006.64632,E,1,09,1.19,24.5,M,45.7,M,,*7F

['16:03:14', 52.2132275, 0.11077200000000001, '24.5', '09', '1']
$GNGGA,160315.00,5212.79367,N,00006.64631,E,1,09,1.19,24.5,M,45.7,M,,*7F

['16:03:15', 52.213227833333335, 0.11077183333333333, '24.5', '09', '1']
$GNGGA,160316.00,5212.79369,N,00006.64630,E,1,09,1.19,24.5,M,45.7,M,,*73

['16:03:16', 52.21322816666667, 0.11077166666666667, '24.5', '09', '1']
$GNGGA,160317.00,5212.79371,N,00006.64627,E,1,09,1.19,24.5,M,45.7,M,,*7D

['16:03:17', 52.2132285, 0.11077116666666667, '24.5', '09', '1']
$GNGGA,160318.00,5212.79373,N,00006.64626,E,1,09,1.19,24.5,M,45.7,M,,*71

['16:03:18', 52.21322883333333, 0.110771, '24.5', '09', '1']
$GNGGA,160319.00,5212.79374,N,00006.64623,E,1,09,1.19,24.4,M,45.7,M,,*73

['16:03:19', 52.213229, 0.11077050000000001, '24.4', '09', '1']
$GNGGA,160320.00,5212.79376,N,00006.64621,E,1,09,1.19,24.4,M,45.7,M,,*79

['16:03:20', 52.21322933333333, 0.11077016666666667, '24.4', '09', '1']
$GNGGA,160321.00,5212.79377,N,00006.64618,E,1,09,1.19,24.2,M,45.7,M,,*75

['16:03:21', 52.2132295, 0.11076966666666667, '24.2', '09', '1']
$GNGGA,160322.00,5212.79378,N,00006.64613,E,1,09,1.19,24.1,M,45.7,M,,*71

['16:03:22', 52.21322966666666, 0.11076883333333334, '24.1', '09', '1']
$GNGGA,160323.00,5212.79380,N,00006.64609,E,1,09,1.19,24.1,M,45.7,M,,*7C

['16:03:23', 52.21323, 0.11076816666666667, '24.1', '09', '1']
$GNGGA,160324.00,5212.79381,N,00006.64606,E,1,09,1.19,24.0,M,45.7,M,,*74

['16:03:24', 52.21323016666667, 0.11076766666666667, '24.0', '09', '1']
$GNGGA,160325.00,5212.79382,N,00006.64602,E,1,09,1.19,23.9,M,45.7,M,,*7C

['16:03:25', 52.213230333333335, 0.110767, '23.9', '09', '1']
$GNGGA,160326.00,5212.79379,N,00006.64598,E,1,11,0.97,23.9,M,45.7,M,,*75

['16:03:26', 52.21322983333334, 0.11076633333333333, '23.9', '11', '1']
$GNGGA,160327.00,5212.79377,N,00006.64595,E,1,11,0.97,24.0,M,45.7,M,,*79

['16:03:27', 52.2132295, 0.11076583333333333, '24.0', '11', '1']
$GNGGA,160328.00,5212.79376,N,00006.64591,E,1,11,0.97,24.0,M,45.7,M,,*73

['16:03:28', 52.21322933333333, 0.11076516666666666, '24.0', '11', '1']
$GNGGA,160329.00,5212.79374,N,00006.64589,E,1,11,0.97,24.1,M,45.7,M,,*78

['16:03:29', 52.213229, 0.11076483333333333, '24.1', '11', '1']
$GNGGA,160330.00,5212.79373,N,00006.64587,E,1,11,0.97,24.1,M,45.7,M,,*79

['16:03:30', 52.21322883333333, 0.1107645, '24.1', '11', '1']
$GNGGA,160331.00,5212.79372,N,00006.64586,E,1,11,0.97,24.1,M,45.7,M,,*78

['16:03:31', 52.213228666666666, 0.11076433333333333, '24.1', '11', '1']
$GNGGA,160332.00,5212.79372,N,00006.64586,E,1,11,0.97,24.1,M,45.7,M,,*7B

['16:03:32', 52.213228666666666, 0.11076433333333333, '24.1', '11', '1']
$GNGGA,160333.00,5212.79372,N,00006.64584,E,1,11,0.97,24.1,M,45.7,M,,*78

['16:03:33', 52.213228666666666, 0.110764, '24.1', '11', '1']
$GNGGA,160334.00,5212.79372,N,00006.64583,E,1,11,0.97,24.1,M,45.7,M,,*78

['16:03:34', 52.213228666666666, 0.11076383333333334, '24.1', '11', '1']
$GNGGA,160335.00,5212.79378,N,00006.64575,E,1,12,0.85,24.0,M,45.7,M,,*7B

['16:03:35', 52.21322966666666, 0.1107625, '24.0', '12', '1']
$GNGGA,160336.00,5212.79383,N,00006.64566,E,1,12,0.85,24.0,M,45.7,M,,*7E

['16:03:36', 52.2132305, 0.11076100000000001, '24.0', '12', '1']
$GNGGA,160337.00,5212.79389,N,00006.64557,E,1,12,0.85,23.9,M,45.7,M,,*79

['16:03:37', 52.2132315, 0.1107595, '23.9', '12', '1']
$GNGGA,160338.00,5212.79394,N,00006.64548,E,1,12,0.75,23.9,M,45.7,M,,*7B

['16:03:38', 52.21323233333333, 0.110758, '23.9', '12', '1']
$GNGGA,160339.00,5212.79399,N,00006.64539,E,1,12,0.75,23.8,M,45.7,M,,*70

['16:03:39', 52.21323316666667, 0.1107565, '23.8', '12', '1']
$GNGGA,160340.00,5212.79404,N,00006.64529,E,1,12,0.75,23.8,M,45.7,M,,*7C

['16:03:40', 52.213234, 0.11075483333333333, '23.8', '12', '1']
$GNGGA,160341.00,5212.79409,N,00006.64519,E,1,12,0.75,23.8,M,45.7,M,,*73

['16:03:41', 52.21323483333333, 0.11075316666666667, '23.8', '12', '1']
$GNGGA,160342.00,5212.79413,N,00006.64510,E,1,12,0.75,23.8,M,45.7,M,,*72

['16:03:42', 52.2132355, 0.11075166666666666, '23.8', '12', '1']
$GNGGA,160343.00,5212.79418,N,00006.64501,E,1,12,0.75,23.8,M,45.7,M,,*78

['16:03:43', 52.213236333333334, 0.11075016666666666, '23.8', '12', '1']
$GNGGA,160344.00,5212.79424,N,00006.64490,E,1,12,0.75,23.8,M,45.7,M,,*79

['16:03:44', 52.21323733333333, 0.11074833333333332, '23.8', '12', '1']
$GNGGA,160345.00,5212.79429,N,00006.64480,E,1,12,0.75,23.8,M,45.7,M,,*74

['16:03:45', 52.21323816666666, 0.11074666666666667, '23.8', '12', '1']
$GNGGA,160346.00,5212.79437,N,00006.64473,E,1,12,0.75,23.7,M,45.7,M,,*7B

['16:03:46', 52.2132395, 0.1107455, '23.7', '12', '1']
$GNGGA,160347.00,5212.79497,N,00006.64536,E,1,12,0.75,23.8,M,45.7,M,,*7F

['16:03:47', 52.2132495, 0.11075600000000001, '23.8', '12', '1']
$GNGGA,160348.00,5212.79643,N,00006.64705,E,1,12,0.75,23.8,M,45.7,M,,*79

['16:03:48', 52.21327383333333, 0.11078416666666667, '23.8', '12', '1']
$GNGGA,160349.00,5212.79860,N,00006.64956,E,1,12,0.75,23.9,M,45.7,M,,*7E

['16:03:49', 52.21331, 0.11082600000000001, '23.9', '12', '1']
$GNGGA,160350.00,5212.80094,N,00006.65226,E,1,12,0.99,24.0,M,45.7,M,,*72

['16:03:50', 52.213349, 0.110871, '24.0', '12', '1']
$GNGGA,160351.00,5212.80306,N,00006.65471,E,1,12,0.85,23.8,M,45.7,M,,*7D

['16:03:51', 52.21338433333333, 0.11091183333333333, '23.8', '12', '1']
$GNGGA,160352.00,5212.80458,N,00006.65643,E,1,12,0.86,23.8,M,45.7,M,,*72

['16:03:52', 52.213409666666664, 0.11094050000000001, '23.8', '12', '1']
$GNGGA,160353.00,5212.80545,N,00006.65743,E,1,12,0.75,23.7,M,45.7,M,,*7C

['16:03:53', 52.21342416666667, 0.11095716666666666, '23.7', '12', '1']
$GNGGA,160354.00,5212.80608,N,00006.65817,E,1,12,0.75,23.7,M,45.7,M,,*7F

['16:03:54', 52.213434666666664, 0.1109695, '23.7', '12', '1']
$GNGGA,160355.00,5212.80664,N,00006.65881,E,1,12,0.81,23.6,M,45.7,M,,*71

['16:03:55', 52.213444, 0.11098016666666667, '23.6', '12', '1']
$GNGGA,160356.00,5212.80715,N,00006.65934,E,1,12,0.80,23.6,M,45.7,M,,*7B

['16:03:56', 52.2134525, 0.110989, '23.6', '12', '1']
$GNGGA,160357.00,5212.80760,N,00006.65981,E,1,12,0.94,23.6,M,45.7,M,,*73

['16:03:57', 52.21346, 0.11099683333333334, '23.6', '12', '1']
$GNGGA,160358.00,5212.80798,N,00006.66020,E,1,12,0.85,23.6,M,45.7,M,,*7A

['16:03:58', 52.213466333333336, 0.11100333333333333, '23.6', '12', '1']
$GNGGA,160359.00,5212.80826,N,00006.66051,E,1,12,0.85,23.6,M,45.7,M,,*77

['16:03:59', 52.213471, 0.11100850000000001, '23.6', '12', '1']
$GNGGA,160400.00,5212.80846,N,00006.66078,E,1,12,0.75,23.6,M,45.7,M,,*7E

['16:04:00', 52.21347433333333, 0.111013, '23.6', '12', '1']
$GNGGA,160401.00,5212.80861,N,00006.66094,E,1,12,0.75,23.7,M,45.7,M,,*79

['16:04:01', 52.21347683333333, 0.11101566666666667, '23.7', '12', '1']
$GNGGA,160402.00,5212.80868,N,00006.66103,E,1,12,0.75,23.8,M,45.7,M,,*73

['16:04:02', 52.213478, 0.11101716666666667, '23.8', '12', '1']
$GNGGA,160403.00,5212.80869,N,00006.66106,E,1,12,0.75,23.8,M,45.7,M,,*76

['16:04:03', 52.21347816666667, 0.11101766666666667, '23.8', '12', '1']
$GNGGA,160404.00,5212.80869,N,00006.66106,E,1,12,0.81,23.9,M,45.7,M,,*7B

['16:04:04', 52.21347816666667, 0.11101766666666667, '23.9', '12', '1']
$GNGGA,160405.00,5212.80868,N,00006.66107,E,1,12,0.81,24.0,M,45.7,M,,*74

['16:04:05', 52.213478, 0.11101783333333333, '24.0', '12', '1']
$GNGGA,160406.00,5212.80883,N,00006.66126,E,1,12,0.81,24.1,M,45.7,M,,*70

['16:04:06', 52.2134805, 0.11102100000000001, '24.1', '12', '1']
$GNGGA,160407.00,5212.80910,N,00006.66153,E,1,12,0.94,24.1,M,45.7,M,,*7C

['16:04:07', 52.213485, 0.1110255, '24.1', '12', '1']
$GNGGA,160408.00,5212.80927,N,00006.66171,E,1,12,0.94,24.1,M,45.7,M,,*77

['16:04:08', 52.21348783333333, 0.1110285, '24.1', '12', '1']
$GNGGA,160409.00,5212.80930,N,00006.66173,E,1,12,0.93,24.1,M,45.7,M,,*75

['16:04:09', 52.21348833333333, 0.11102883333333334, '24.1', '12', '1']
$GNGGA,160410.00,5212.80928,N,00006.66172,E,1,12,0.87,24.1,M,45.7,M,,*70

['16:04:10', 52.213488, 0.11102866666666666, '24.1', '12', '1']
$GNGGA,160411.00,5212.80926,N,00006.66172,E,1,12,0.93,24.1,M,45.7,M,,*7A

['16:04:11', 52.213487666666666, 0.11102866666666666, '24.1', '12', '1']
$GNGGA,160412.00,5212.80922,N,00006.66176,E,1,12,0.80,24.2,M,45.7,M,,*78

['16:04:12', 52.213487, 0.11102933333333334, '24.2', '12', '1']
$GNGGA,160413.00,5212.80918,N,00006.66182,E,1,12,0.80,24.3,M,45.7,M,,*7A

['16:04:13', 52.213486333333336, 0.11103033333333333, '24.3', '12', '1']
$GNGGA,160414.00,5212.80917,N,00006.66183,E,2,12,0.80,24.3,M,45.7,M,,0000*70

['16:04:14', 52.21348616666667, 0.1110305, '24.3', '12', '2']
$GNGGA,160415.00,5212.80915,N,00006.66189,E,2,12,0.80,24.4,M,45.7,M,,0000*7E

['16:04:15', 52.21348583333333, 0.11103149999999999, '24.4', '12', '2']
$GNGGA,160416.00,5212.80911,N,00006.66195,E,2,12,0.87,24.4,M,45.7,M,,0000*73

['16:04:16', 52.213485166666665, 0.1110325, '24.4', '12', '2']
$GNGGA,160417.00,5212.80908,N,00006.66201,E,2,12,0.80,24.5,M,45.7,M,,0000*72

['16:04:17', 52.213484666666666, 0.11103350000000001, '24.5', '12', '2']
$GNGGA,160418.00,5212.80905,N,00006.66207,E,2,12,0.80,24.5,M,45.7,M,,0000*76

['16:04:18', 52.21348416666667, 0.1110345, '24.5', '12', '2']
$GNGGA,160419.00,5212.80904,N,00006.66211,E,2,12,0.86,24.6,M,45.7,M,,0000*74

['16:04:19', 52.213484, 0.11103516666666667, '24.6', '12', '2']
$GNGGA,160420.00,5212.80908,N,00006.66206,E,2,12,0.74,24.5,M,45.7,M,,0000*7A

['16:04:20', 52.213484666666666, 0.11103433333333333, '24.5', '12', '2']
$GNGGA,160421.00,5212.80912,N,00006.66201,E,2,12,0.80,24.4,M,45.7,M,,0000*7D

['16:04:21', 52.21348533333333, 0.11103350000000001, '24.4', '12', '2']
$GNGGA,160422.00,5212.80915,N,00006.66197,E,2,12,0.74,24.3,M,45.7,M,,0000*79

['16:04:22', 52.21348583333333, 0.11103283333333333, '24.3', '12', '2']
$GNGGA,160423.00,5212.80917,N,00006.66194,E,2,12,0.74,24.2,M,45.7,M,,0000*78

['16:04:23', 52.21348616666667, 0.11103233333333334, '24.2', '12', '2']
$GNGGA,160424.00,5212.80921,N,00006.66190,E,2,12,0.74,24.1,M,45.7,M,,0000*7D

['16:04:24', 52.213486833333334, 0.11103166666666667, '24.1', '12', '2']
$GNGGA,160425.00,5212.80924,N,00006.66188,E,2,12,0.74,24.0,M,45.7,M,,0000*71

['16:04:25', 52.21348733333333, 0.11103133333333333, '24.0', '12', '2']
$GNGGA,160426.00,5212.80925,N,00006.66187,E,2,12,0.72,23.8,M,45.7,M,,0000*75

['16:04:26', 52.2134875, 0.11103116666666667, '23.8', '12', '2']
$GNGGA,160427.00,5212.80927,N,00006.66186,E,2,12,0.71,23.7,M,45.7,M,,0000*7B

['16:04:27', 52.21348783333333, 0.111031, '23.7', '12', '2']
$GNGGA,160428.00,5212.80928,N,00006.66186,E,2,12,0.74,23.6,M,45.7,M,,0000*7F

['16:04:28', 52.213488, 0.111031, '23.6', '12', '2']
$GNGGA,160429.00,5212.80930,N,00006.66183,E,2,12,0.71,23.4,M,45.7,M,,0000*75

['16:04:29', 52.21348833333333, 0.1110305, '23.4', '12', '2']
$GNGGA,160430.00,5212.80932,N,00006.66181,E,2,12,0.68,23.3,M,45.7,M,,0000*72

['16:04:30', 52.21348866666666, 0.11103016666666667, '23.3', '12', '2']
$GNGGA,160431.00,5212.80933,N,00006.66180,E,2,12,0.68,23.2,M,45.7,M,,0000*72

['16:04:31', 52.21348883333334, 0.11103, '23.2', '12', '2']
$GNGGA,160432.00,5212.80934,N,00006.66180,E,2,12,0.71,23.1,M,45.7,M,,0000*7D

['16:04:32', 52.213489, 0.11103, '23.1', '12', '2']
$GNGGA,160433.00,5212.80934,N,00006.66180,E,2,12,0.71,23.0,M,45.7,M,,0000*7D

['16:04:33', 52.213489, 0.11103, '23.0', '12', '2']
$GNGGA,160434.00,5212.80935,N,00006.66180,E,2,12,0.71,23.0,M,45.7,M,,0000*7B

['16:04:34', 52.21348916666667, 0.11103, '23.0', '12', '2']
$GNGGA,160435.00,5212.80935,N,00006.66180,E,2,12,0.68,22.9,M,45.7,M,,0000*7A

['16:04:35', 52.21348916666667, 0.11103, '22.9', '12', '2']
$GNGGA,160436.00,5212.80935,N,00006.66181,E,2,12,0.71,22.8,M,45.7,M,,0000*71

['16:04:36', 52.21348916666667, 0.11103016666666667, '22.8', '12', '2']
$GNGGA,160437.00,5212.80935,N,00006.66181,E,2,12,0.74,22.8,M,45.7,M,,0000*75

['16:04:37', 52.21348916666667, 0.11103016666666667, '22.8', '12', '2']
$GNGGA,160438.00,5212.80934,N,00006.66183,E,2,12,0.74,22.8,M,45.7,M,,0000*79

['16:04:38', 52.213489, 0.1110305, '22.8', '12', '2']
$GNGGA,160439.00,5212.80932,N,00006.66184,E,2,12,0.72,22.8,M,45.7,M,,0000*7F

['16:04:39', 52.21348866666666, 0.11103066666666667, '22.8', '12', '2']
$GNGGA,160440.00,5212.80930,N,00006.66184,E,2,12,0.72,22.8,M,45.7,M,,0000*73

['16:04:40', 52.21348833333333, 0.11103066666666667, '22.8', '12', '2']
$GNGGA,160441.00,5212.80929,N,00006.66184,E,2,12,0.68,22.8,M,45.7,M,,0000*71

['16:04:41', 52.213488166666664, 0.11103066666666667, '22.8', '12', '2']
$GNGGA,160442.00,5212.80928,N,00006.66184,E,2,12,0.68,22.8,M,45.7,M,,0000*73

['16:04:42', 52.213488, 0.11103066666666667, '22.8', '12', '2']
$GNGGA,160443.00,5212.80926,N,00006.66185,E,2,12,0.74,22.8,M,45.7,M,,0000*70

['16:04:43', 52.213487666666666, 0.11103083333333334, '22.8', '12', '2']
$GNGGA,160444.00,5212.80924,N,00006.66187,E,2,12,0.68,22.8,M,45.7,M,,0000*7A

['16:04:44', 52.21348733333333, 0.11103116666666667, '22.8', '12', '2']
$GNGGA,160445.00,5212.80923,N,00006.66188,E,2,12,0.68,22.8,M,45.7,M,,0000*73

['16:04:45', 52.21348716666667, 0.11103133333333333, '22.8', '12', '2']
$GNGGA,160446.00,5212.80920,N,00006.66193,E,2,12,0.68,22.7,M,45.7,M,,0000*76

['16:04:46', 52.21348666666667, 0.11103216666666667, '22.7', '12', '2']
$GNGGA,160447.00,5212.80918,N,00006.66197,E,2,12,0.68,22.7,M,45.7,M,,0000*78

['16:04:47', 52.213486333333336, 0.11103283333333333, '22.7', '12', '2']
$GNGGA,160448.00,5212.80915,N,00006.66202,E,2,12,0.68,22.7,M,45.7,M,,0000*75

['16:04:48', 52.21348583333333, 0.11103366666666667, '22.7', '12', '2']
$GNGGA,160449.00,5212.80913,N,00006.66206,E,2,12,0.68,22.7,M,45.7,M,,0000*76

['16:04:49', 52.2134855, 0.11103433333333333, '22.7', '12', '2']
$GNGGA,160450.00,5212.80911,N,00006.66210,E,2,12,0.67,22.8,M,45.7,M,,0000*7B

['16:04:50', 52.213485166666665, 0.111035, '22.8', '12', '2']
$GNGGA,160451.00,5212.80909,N,00006.66212,E,2,12,0.68,22.8,M,45.7,M,,0000*7E

['16:04:51', 52.21348483333333, 0.11103533333333333, '22.8', '12', '2']
$GNGGA,160452.00,5212.80907,N,00006.66213,E,2,12,0.67,22.8,M,45.7,M,,0000*7D

['16:04:52', 52.2134845, 0.11103550000000001, '22.8', '12', '2']
$GNGGA,160453.00,5212.80905,N,00006.66215,E,2,12,0.67,22.9,M,45.7,M,,0000*79

['16:04:53', 52.21348416666667, 0.11103583333333332, '22.9', '12', '2']
$GNGGA,160454.00,5212.80903,N,00006.66217,E,2,12,0.67,23.0,M,45.7,M,,0000*72

['16:04:54', 52.213483833333335, 0.11103616666666666, '23.0', '12', '2']
$GNGGA,160455.00,5212.80901,N,00006.66219,E,2,12,0.67,23.0,M,45.7,M,,0000*7F

['16:04:55', 52.2134835, 0.1110365, '23.0', '12', '2']
$GNGGA,160456.00,5212.80900,N,00006.66222,E,2,12,0.67,23.1,M,45.7,M,,0000*74

['16:04:56', 52.213483333333336, 0.111037, '23.1', '12', '2']
$GNGGA,160457.00,5212.80970,N,00006.66285,E,2,12,0.68,23.0,M,45.7,M,,0000*71

['16:04:57', 52.213495, 0.1110475, '23.0', '12', '2']
$GNGGA,160458.00,5212.81169,N,00006.66457,E,2,12,0.74,23.0,M,45.7,M,,0000*7B

['16:04:58', 52.21352816666667, 0.11107616666666667, '23.0', '12', '2']
$GNGGA,160459.00,5212.81442,N,00006.66668,E,2,12,0.68,23.0,M,45.7,M,,0000*75

['16:04:59', 52.21357366666667, 0.11111133333333334, '23.0', '12', '2']
$GNGGA,160500.00,5212.81739,N,00006.66828,E,2,12,0.76,23.0,M,45.7,M,,0000*72

['16:05:00', 52.213623166666665, 0.111138, '23.0', '12', '2']
$GNGGA,160501.00,5212.82058,N,00006.66839,E,2,12,0.76,23.1,M,45.7,M,,0000*71

['16:05:01', 52.21367633333333, 0.11113983333333333, '23.1', '12', '2']
$GNGGA,160502.00,5212.82344,N,00006.66667,E,2,12,0.71,23.2,M,45.7,M,,0000*7D

['16:05:02', 52.213724, 0.11111116666666666, '23.2', '12', '2']
$GNGGA,160503.00,5212.82564,N,00006.66360,E,2,12,0.79,23.4,M,45.7,M,,0000*74

['16:05:03', 52.213760666666666, 0.11105999999999999, '23.4', '12', '2']
$GNGGA,160504.00,5212.82740,N,00006.66023,E,2,12,0.79,23.4,M,45.7,M,,0000*73

['16:05:04', 52.21379, 0.11100383333333334, '23.4', '12', '2']
$GNGGA,160505.00,5212.82882,N,00006.65731,E,2,12,0.79,23.5,M,45.7,M,,0000*75

['16:05:05', 52.21381366666667, 0.11095516666666666, '23.5', '12', '2']
$GNGGA,160506.00,5212.82979,N,00006.65519,E,2,12,0.93,23.5,M,45.7,M,,0000*7F

['16:05:06', 52.213829833333335, 0.11091983333333334, '23.5', '12', '2']
$GNGGA,160507.00,5212.83040,N,00006.65386,E,2,12,0.95,23.5,M,45.7,M,,0000*7A

['16:05:07', 52.21384, 0.11089766666666666, '23.5', '12', '2']
$GNGGA,160508.00,5212.83071,N,00006.65325,E,2,12,0.79,23.5,M,45.7,M,,0000*7C

['16:05:08', 52.213845166666665, 0.1108875, '23.5', '12', '2']
$GNGGA,160509.00,5212.83075,N,00006.65316,E,2,12,0.71,23.6,M,45.7,M,,0000*72

['16:05:09', 52.21384583333333, 0.110886, '23.6', '12', '2']
$GNGGA,160510.00,5212.83071,N,00006.65319,E,2,12,0.88,23.7,M,45.7,M,,0000*76

['16:05:10', 52.213845166666665, 0.11088650000000001, '23.7', '12', '2']
$GNGGA,160511.00,5212.83066,N,00006.65322,E,2,12,0.71,23.8,M,45.7,M,,0000*70

['16:05:11', 52.213844333333334, 0.110887, '23.8', '12', '2']
$GNGGA,160512.00,5212.83062,N,00006.65323,E,2,12,0.71,23.9,M,45.7,M,,0000*77

['16:05:12', 52.21384366666667, 0.11088716666666666, '23.9', '12', '2']
$GNGGA,160513.00,5212.83059,N,00006.65324,E,2,12,0.70,23.9,M,45.7,M,,0000*78

['16:05:13', 52.21384316666666, 0.11088733333333334, '23.9', '12', '2']
$GNGGA,160514.00,5212.83057,N,00006.65326,E,2,12,0.69,24.0,M,45.7,M,,0000*75

['16:05:14', 52.21384283333333, 0.11088766666666668, '24.0', '12', '2']
$GNGGA,160515.00,5212.83055,N,00006.65327,E,2,12,0.69,24.1,M,45.7,M,,0000*76

['16:05:15', 52.2138425, 0.11088783333333334, '24.1', '12', '2']
$GNGGA,160516.00,5212.83053,N,00006.65328,E,2,12,0.87,24.1,M,45.7,M,,0000*7C

['16:05:16', 52.213842166666666, 0.110888, '24.1', '12', '2']
$GNGGA,160517.00,5212.83050,N,00006.65328,E,2,12,0.87,24.2,M,45.7,M,,0000*7D

['16:05:17', 52.21384166666667, 0.110888, '24.2', '12', '2']
$GNGGA,160518.00,5212.83050,N,00006.65331,E,2,12,0.72,24.2,M,45.7,M,,0000*70

['16:05:18', 52.21384166666667, 0.1108885, '24.2', '12', '2']
$GNGGA,160519.00,5212.83049,N,00006.65332,E,2,12,0.69,24.2,M,45.7,M,,0000*70

['16:05:19', 52.2138415, 0.11088866666666666, '24.2', '12', '2']
$GNGGA,160520.00,5212.83049,N,00006.65335,E,2,12,0.69,24.2,M,45.7,M,,0000*7D

['16:05:20', 52.2138415, 0.11088916666666666, '24.2', '12', '2']
$GNGGA,160521.00,5212.83050,N,00006.65337,E,2,12,0.69,24.3,M,45.7,M,,0000*77

['16:05:21', 52.21384166666667, 0.1108895, '24.3', '12', '2']
$GNGGA,160522.00,5212.83044,N,00006.65356,E,1,12,0.72,24.4,M,45.7,M,,*78

['16:05:22', 52.21384066666667, 0.11089266666666667, '24.4', '12', '1']
$GNGGA,160523.00,5212.83036,N,00006.65359,E,2,12,0.69,24.4,M,45.7,M,,0000*7A

['16:05:23', 52.21383933333333, 0.11089316666666667, '24.4', '12', '2']
$GNGGA,160524.00,5212.83033,N,00006.65365,E,2,12,0.69,24.5,M,45.7,M,,0000*76

['16:05:24', 52.213838833333334, 0.11089416666666667, '24.5', '12', '2']
$GNGGA,160525.00,5212.83024,N,00006.65369,E,2,12,0.87,24.5,M,45.7,M,,0000*7D

['16:05:25', 52.21383733333333, 0.11089483333333333, '24.5', '12', '2']
$GNGGA,160526.00,5212.83012,N,00006.65371,E,2,12,0.69,24.6,M,45.7,M,,0000*71

['16:05:26', 52.213835333333336, 0.11089516666666667, '24.6', '12', '2']
$GNGGA,160527.00,5212.83008,N,00006.65376,E,1,12,0.72,24.6,M,45.7,M,,*75

['16:05:27', 52.21383466666666, 0.11089600000000001, '24.6', '12', '1']
$GNGGA,160528.00,5212.83003,N,00006.65380,E,2,12,0.69,24.7,M,45.7,M,,0000*70

['16:05:28', 52.21383383333333, 0.11089666666666667, '24.7', '12', '2']
$GNGGA,160529.00,5212.82999,N,00006.65383,E,2,12,0.69,24.7,M,45.7,M,,0000*79

['16:05:29', 52.21383316666667, 0.11089716666666667, '24.7', '12', '2']
$GNGGA,160530.00,5212.82995,N,00006.65384,E,2,12,0.69,24.8,M,45.7,M,,0000*75

['16:05:30', 52.2138325, 0.11089733333333333, '24.8', '12', '2']
$GNGGA,160531.00,5212.82988,N,00006.65386,E,2,12,0.87,24.9,M,45.7,M,,0000*7B

['16:05:31', 52.21383133333333, 0.11089766666666666, '24.9', '12', '2']
$GNGGA,160532.00,5212.82990,N,00006.65378,E,2,12,0.70,24.7,M,45.7,M,,0000*76

['16:05:32', 52.213831666666664, 0.11089633333333333, '24.7', '12', '2']
$GNGGA,160533.00,5212.82990,N,00006.65373,E,2,12,0.67,24.6,M,45.7,M,,0000*7B

['16:05:33', 52.213831666666664, 0.11089550000000001, '24.6', '12', '2']
$GNGGA,160534.00,5212.82990,N,00006.65368,E,2,12,0.67,24.6,M,45.7,M,,0000*76

['16:05:34', 52.213831666666664, 0.11089466666666666, '24.6', '12', '2']
$GNGGA,160535.00,5212.82990,N,00006.65364,E,2,12,0.67,24.6,M,45.7,M,,0000*7B

['16:05:35', 52.213831666666664, 0.110894, '24.6', '12', '2']
$GNGGA,160536.00,5212.82989,N,00006.65362,E,2,12,0.67,24.7,M,45.7,M,,0000*77

['16:05:36', 52.2138315, 0.11089366666666667, '24.7', '12', '2']
$GNGGA,160537.00,5212.82991,N,00006.65361,E,2,12,0.70,24.7,M,45.7,M,,0000*7A

['16:05:37', 52.21383183333333, 0.11089349999999999, '24.7', '12', '2']
$GNGGA,160538.00,5212.82992,N,00006.65361,E,2,12,0.67,24.7,M,45.7,M,,0000*70

['16:05:38', 52.213832, 0.11089349999999999, '24.7', '12', '2']
$GNGGA,160539.00,5212.82994,N,00006.65362,E,2,12,0.67,24.8,M,45.7,M,,0000*7B

['16:05:39', 52.213832333333336, 0.11089366666666667, '24.8', '12', '2']
$GNGGA,160540.00,5212.82995,N,00006.65358,E,2,12,0.67,25.0,M,45.7,M,,0000*74

['16:05:40', 52.2138325, 0.11089299999999999, '25.0', '12', '2']
$GNGGA,160541.00,5212.83012,N,00006.65349,E,2,12,0.70,25.1,M,45.7,M,,0000*75

['16:05:41', 52.213835333333336, 0.11089149999999999, '25.1', '12', '2']
$GNGGA,160542.00,5212.83022,N,00006.65340,E,2,12,0.67,25.1,M,45.7,M,,0000*7A

['16:05:42', 52.213837, 0.11089, '25.1', '12', '2']
$GNGGA,160543.00,5212.83027,N,00006.65333,E,2,12,0.67,25.2,M,45.7,M,,0000*79

['16:05:43', 52.213837833333336, 0.11088883333333334, '25.2', '12', '2']
$GNGGA,160544.00,5212.83029,N,00006.65325,E,2,12,0.67,25.2,M,45.7,M,,0000*77

['16:05:44', 52.21383816666667, 0.1108875, '25.2', '12', '2']
$GNGGA,160545.00,5212.83031,N,00006.65321,E,2,12,0.68,25.4,M,45.7,M,,0000*72

['16:05:45', 52.2138385, 0.11088683333333332, '25.4', '12', '2']
$GNGGA,160546.00,5212.83034,N,00006.65320,E,2,12,0.68,25.4,M,45.7,M,,0000*75

['16:05:46', 52.213839, 0.11088666666666666, '25.4', '12', '2']
$GNGGA,160547.00,5212.83038,N,00006.65316,E,2,12,0.62,25.6,M,45.7,M,,0000*75

['16:05:47', 52.213839666666665, 0.110886, '25.6', '12', '2']
$GNGGA,160548.00,5212.83043,N,00006.65312,E,2,12,0.67,25.7,M,45.7,M,,0000*76

['16:05:48', 52.2138405, 0.11088533333333334, '25.7', '12', '2']
$GNGGA,160549.00,5212.83048,N,00006.65307,E,2,12,0.68,25.7,M,45.7,M,,0000*77

['16:05:49', 52.213841333333335, 0.1108845, '25.7', '12', '2']
$GNGGA,160550.00,5212.83050,N,00006.65299,E,2,12,0.67,25.8,M,45.7,M,,0000*70

['16:05:50', 52.21384166666667, 0.11088316666666667, '25.8', '12', '2']
$GNGGA,160551.00,5212.83054,N,00006.65290,E,2,12,0.68,25.9,M,45.7,M,,0000*72

['16:05:51', 52.21384233333333, 0.11088166666666667, '25.9', '12', '2']
$GNGGA,160552.00,5212.83057,N,00006.65278,E,2,12,0.62,26.0,M,45.7,M,,0000*74

['16:05:52', 52.21384283333333, 0.11087966666666667, '26.0', '12', '2']
$GNGGA,160553.00,5212.83061,N,00006.65269,E,2,12,0.63,26.1,M,45.7,M,,0000*70

['16:05:53', 52.2138435, 0.11087816666666667, '26.1', '12', '2']
$GNGGA,160554.00,5212.83062,N,00006.65260,E,2,12,0.62,26.2,M,45.7,M,,0000*7F

['16:05:54', 52.21384366666667, 0.11087666666666667, '26.2', '12', '2']
$GNGGA,160555.00,5212.83062,N,00006.65250,E,2,12,0.62,26.4,M,45.7,M,,0000*7B

['16:05:55', 52.21384366666667, 0.110875, '26.4', '12', '2']
$GNGGA,160556.00,5212.83063,N,00006.65243,E,2,12,0.63,26.5,M,45.7,M,,0000*7B

['16:05:56', 52.213843833333335, 0.11087383333333332, '26.5', '12', '2']
$GNGGA,160557.00,5212.83063,N,00006.65237,E,2,12,0.63,26.6,M,45.7,M,,0000*7A

['16:05:57', 52.213843833333335, 0.11087283333333334, '26.6', '12', '2']
$GNGGA,160558.00,5212.83064,N,00006.65233,E,2,12,0.65,26.7,M,45.7,M,,0000*71

['16:05:58', 52.213844, 0.11087216666666667, '26.7', '12', '2']
$GNGGA,160559.00,5212.83065,N,00006.65231,E,2,12,0.63,26.8,M,45.7,M,,0000*7A

['16:05:59', 52.21384416666667, 0.11087183333333334, '26.8', '12', '2']
$GNGGA,160600.00,5212.83066,N,00006.65228,E,2,12,0.63,26.9,M,45.7,M,,0000*7F

['16:06:00', 52.213844333333334, 0.11087133333333334, '26.9', '12', '2']
$GNGGA,160601.00,5212.83066,N,00006.65226,E,2,12,0.67,27.0,M,45.7,M,,0000*7C

['16:06:01', 52.213844333333334, 0.110871, '27.0', '12', '2']
$GNGGA,160602.00,5212.83067,N,00006.65224,E,2,12,0.67,27.0,M,45.7,M,,0000*7C

['16:06:02', 52.2138445, 0.11087066666666666, '27.0', '12', '2']
$GNGGA,160603.00,5212.83067,N,00006.65222,E,2,12,0.67,27.1,M,45.7,M,,0000*7A

['16:06:03', 52.2138445, 0.11087033333333333, '27.1', '12', '2']
$GNGGA,160604.00,5212.83066,N,00006.65218,E,2,12,0.67,27.3,M,45.7,M,,0000*77

['16:06:04', 52.213844333333334, 0.11086966666666667, '27.3', '12', '2']
$GNGGA,160605.00,5212.83066,N,00006.65216,E,2,12,0.68,27.3,M,45.7,M,,0000*77

['16:06:05', 52.213844333333334, 0.11086933333333333, '27.3', '12', '2']
$GNGGA,160606.00,5212.83066,N,00006.65214,E,2,12,0.85,27.4,M,45.7,M,,0000*72

['16:06:06', 52.213844333333334, 0.11086900000000001, '27.4', '12', '2']
$GNGGA,160607.00,5212.83067,N,00006.65214,E,2,12,0.68,27.5,M,45.7,M,,0000*70

['16:06:07', 52.2138445, 0.11086900000000001, '27.5', '12', '2']
$GNGGA,160608.00,5212.83068,N,00006.65213,E,2,12,0.85,27.5,M,45.7,M,,0000*74

['16:06:08', 52.21384466666667, 0.11086883333333333, '27.5', '12', '2']
$GNGGA,160609.00,5212.83068,N,00006.65213,E,2,12,0.87,27.5,M,45.7,M,,0000*77

['16:06:09', 52.21384466666667, 0.11086883333333333, '27.5', '12', '2']
$GNGGA,160610.00,5212.83069,N,00006.65214,E,2,12,0.84,27.5,M,45.7,M,,0000*7A

['16:06:10', 52.21384483333333, 0.11086900000000001, '27.5', '12', '2']
$GNGGA,160611.00,5212.83069,N,00006.65214,E,2,12,0.84,27.6,M,45.7,M,,0000*78

['16:06:11', 52.21384483333333, 0.11086900000000001, '27.6', '12', '2']
$GNGGA,160612.00,5212.83070,N,00006.65214,E,2,12,0.84,27.6,M,45.7,M,,0000*73

['16:06:12', 52.213845, 0.11086900000000001, '27.6', '12', '2']
$GNGGA,160613.00,5212.83069,N,00006.65213,E,2,12,0.84,27.6,M,45.7,M,,0000*7D

['16:06:13', 52.21384483333333, 0.11086883333333333, '27.6', '12', '2']
$GNGGA,160614.00,5212.83070,N,00006.65215,E,2,12,0.87,27.6,M,45.7,M,,0000*77

['16:06:14', 52.213845, 0.11086916666666666, '27.6', '12', '2']
$GNGGA,160615.00,5212.83071,N,00006.65217,E,2,12,0.84,27.6,M,45.7,M,,0000*76

['16:06:15', 52.213845166666665, 0.1108695, '27.6', '12', '2']
$GNGGA,160616.00,5212.83072,N,00006.65218,E,2,12,0.84,27.6,M,45.7,M,,0000*79

['16:06:16', 52.21384533333333, 0.11086966666666667, '27.6', '12', '2']
$GNGGA,160617.00,5212.83072,N,00006.65218,E,2,12,0.84,27.7,M,45.7,M,,0000*79

['16:06:17', 52.21384533333333, 0.11086966666666667, '27.7', '12', '2']
$GNGGA,160618.00,5212.83072,N,00006.65217,E,2,12,0.85,27.7,M,45.7,M,,0000*78

['16:06:18', 52.21384533333333, 0.1108695, '27.7', '12', '2']
$GNGGA,160619.00,5212.83072,N,00006.65217,E,2,12,0.84,27.8,M,45.7,M,,0000*77

['16:06:19', 52.21384533333333, 0.1108695, '27.8', '12', '2']
$GNGGA,160620.00,5212.83072,N,00006.65217,E,2,12,0.85,27.8,M,45.7,M,,0000*7C

['16:06:20', 52.21384533333333, 0.1108695, '27.8', '12', '2']
$GNGGA,160621.00,5212.83072,N,00006.65216,E,2,12,0.84,27.8,M,45.7,M,,0000*7D

['16:06:21', 52.21384533333333, 0.11086933333333333, '27.8', '12', '2']
$GNGGA,160622.00,5212.83094,N,00006.65170,E,2,12,0.84,27.8,M,45.7,M,,0000*75

['16:06:22', 52.213849, 0.11086166666666666, '27.8', '12', '2']
$GNGGA,160623.00,5212.83165,N,00006.65028,E,2,12,0.84,27.9,M,45.7,M,,0000*76

['16:06:23', 52.213860833333335, 0.110838, '27.9', '12', '2']
$GNGGA,160624.00,5212.83294,N,00006.64773,E,2,12,0.86,27.9,M,45.7,M,,0000*76

['16:06:24', 52.21388233333333, 0.1107955, '27.9', '12', '2']
$GNGGA,160625.00,5212.83440,N,00006.64504,E,2,12,0.85,27.9,M,45.7,M,,0000*79

['16:06:25', 52.21390666666667, 0.11075066666666666, '27.9', '12', '2']
$GNGGA,160626.00,5212.83575,N,00006.64317,E,2,12,0.86,27.9,M,45.7,M,,0000*7A

['16:06:26', 52.21392916666667, 0.1107195, '27.9', '12', '2']
$GNGGA,160627.00,5212.83729,N,00006.64194,E,2,12,0.68,27.8,M,45.7,M,,0000*78

['16:06:27', 52.21395483333333, 0.110699, '27.8', '12', '2']
$GNGGA,160628.00,5212.83908,N,00006.64114,E,2,12,0.68,27.7,M,45.7,M,,0000*7D

['16:06:28', 52.21398466666667, 0.11068566666666667, '27.7', '12', '2']
$GNGGA,160629.00,5212.84098,N,00006.64086,E,2,12,0.68,27.6,M,45.7,M,,0000*70

['16:06:29', 52.21401633333333, 0.110681, '27.6', '12', '2']
$GNGGA,160630.00,5212.84324,N,00006.64174,E,2,12,0.68,27.2,M,45.7,M,,0000*74

['16:06:30', 52.214054, 0.11069566666666668, '27.2', '12', '2']
$GNGGA,160631.00,5212.84592,N,00006.64447,E,2,12,0.68,26.8,M,45.7,M,,0000*70

['16:06:31', 52.214098666666665, 0.11074116666666667, '26.8', '12', '2']
$GNGGA,160632.00,5212.84944,N,00006.64806,E,2,12,0.64,26.6,M,45.7,M,,0000*7F

['16:06:32', 52.21415733333333, 0.110801, '26.6', '12', '2']
$GNGGA,160633.00,5212.85378,N,00006.65048,E,2,12,0.67,26.4,M,45.7,M,,0000*78

['16:06:33', 52.21422966666667, 0.11084133333333333, '26.4', '12', '2']
$GNGGA,160634.00,5212.85846,N,00006.65165,E,2,12,0.67,26.2,M,45.7,M,,0000*71

['16:06:34', 52.21430766666667, 0.11086083333333334, '26.2', '12', '2']
$GNGGA,160635.00,5212.86326,N,00006.65228,E,2,12,0.67,26.1,M,45.7,M,,0000*77

['16:06:35', 52.21438766666667, 0.11087133333333334, '26.1', '12', '2']
$GNGGA,160636.00,5212.86815,N,00006.65279,E,2,12,0.69,26.0,M,45.7,M,,0000*74

['16:06:36', 52.21446916666667, 0.11087983333333334, '26.0', '12', '2']
$GNGGA,160637.00,5212.87309,N,00006.65326,E,2,12,0.65,25.9,M,45.7,M,,0000*7F

['16:06:37', 52.2145515, 0.11088766666666668, '25.9', '12', '2']
$GNGGA,160638.00,5212.87803,N,00006.65358,E,2,12,0.63,25.8,M,45.7,M,,0000*7F

['16:06:38', 52.21463383333333, 0.11089299999999999, '25.8', '12', '2']
$GNGGA,160639.00,5212.88303,N,00006.65376,E,2,12,0.63,25.8,M,45.7,M,,0000*76

['16:06:39', 52.21471716666667, 0.11089600000000001, '25.8', '12', '2']
$GNGGA,160640.00,5212.88807,N,00006.65397,E,2,12,0.62,25.7,M,45.7,M,,0000*76

['16:06:40', 52.21480116666667, 0.1108995, '25.7', '12', '2']
$GNGGA,160641.00,5212.89314,N,00006.65435,E,2,12,0.63,25.7,M,45.7,M,,0000*71

['16:06:41', 52.21488566666667, 0.11090583333333333, '25.7', '12', '2']
$GNGGA,160642.00,5212.89823,N,00006.65497,E,2,12,0.62,25.7,M,45.7,M,,0000*74

['16:06:42', 52.2149705, 0.11091616666666666, '25.7', '12', '2']
$GNGGA,160643.00,5212.90344,N,00006.65564,E,2,12,0.71,25.7,M,45.7,M,,0000*78

['16:06:43', 52.215057333333334, 0.11092733333333334, '25.7', '12', '2']
$GNGGA,160644.00,5212.90878,N,00006.65621,E,2,12,0.63,25.6,M,45.7,M,,0000*7B

['16:06:44', 52.21514633333334, 0.11093683333333333, '25.6', '12', '2']
$GNGGA,160645.00,5212.91419,N,00006.65667,E,2,12,0.66,25.6,M,45.7,M,,0000*77

['16:06:45', 52.2152365, 0.1109445, '25.6', '12', '2']
$GNGGA,160646.00,5212.91971,N,00006.65710,E,2,12,0.68,25.5,M,45.7,M,,0000*7B

['16:06:46', 52.2153285, 0.11095166666666666, '25.5', '12', '2']
$GNGGA,160647.00,5212.92534,N,00006.65751,E,2,12,0.68,25.4,M,45.7,M,,0000*70

['16:06:47', 52.215422333333336, 0.1109585, '25.4', '12', '2']
$GNGGA,160648.00,5212.93102,N,00006.65787,E,2,12,0.67,25.3,M,45.7,M,,0000*7C

['16:06:48', 52.215517, 0.1109645, '25.3', '12', '2']
$GNGGA,160649.00,5212.93678,N,00006.65829,E,2,12,0.71,25.2,M,45.7,M,,0000*7A

['16:06:49', 52.215613, 0.1109715, '25.2', '12', '2']
$GNGGA,160650.00,5212.94256,N,00006.65878,E,2,12,0.65,25.2,M,45.7,M,,0000*7C

['16:06:50', 52.215709333333336, 0.11097966666666667, '25.2', '12', '2']
$GNGGA,160651.00,5212.94838,N,00006.65924,E,2,12,0.71,25.2,M,45.7,M,,0000*72

['16:06:51', 52.21580633333333, 0.11098733333333333, '25.2', '12', '2']
$GNGGA,160652.00,5212.95422,N,00006.65969,E,2,12,0.62,25.0,M,45.7,M,,0000*7E

['16:06:52', 52.21590366666667, 0.11099483333333333, '25.0', '12', '2']
$GNGGA,160653.00,5212.96005,N,00006.66012,E,2,12,0.62,25.0,M,45.7,M,,0000*7B

['16:06:53', 52.21600083333333, 0.111002, '25.0', '12', '2']
$GNGGA,160654.00,5212.96587,N,00006.66055,E,2,12,0.62,25.0,M,45.7,M,,0000*70

['16:06:54', 52.216097833333336, 0.11100916666666666, '25.0', '12', '2']
$GNGGA,160655.00,5212.97174,N,00006.66103,E,2,12,0.62,25.0,M,45.7,M,,0000*7A

['16:06:55', 52.216195666666664, 0.11101716666666667, '25.0', '12', '2']
$GNGGA,160656.00,5212.97761,N,00006.66148,E,2,12,0.62,25.0,M,45.7,M,,0000*74

['16:06:56', 52.2162935, 0.11102466666666667, '25.0', '12', '2']
$GNGGA,160657.00,5212.98346,N,00006.66190,E,2,12,0.62,25.0,M,45.7,M,,0000*7E

['16:06:57', 52.216391, 0.11103166666666667, '25.0', '12', '2']
$GNGGA,160658.00,5212.98930,N,00006.66227,E,2,12,0.62,25.1,M,45.7,M,,0000*74

['16:06:58', 52.21648833333333, 0.11103783333333334, '25.1', '12', '2']
$GNGGA,160659.00,5212.99512,N,00006.66256,E,2,12,0.62,25.2,M,45.7,M,,0000*7D

['16:06:59', 52.216585333333335, 0.11104266666666666, '25.2', '12', '2']
$GNGGA,160700.00,5213.00088,N,00006.66281,E,2,12,0.63,25.1,M,45.7,M,,0000*7F

['16:07:00', 52.216681333333334, 0.11104683333333334, '25.1', '12', '2']
$GNGGA,160701.00,5213.00662,N,00006.66310,E,2,12,0.69,25.1,M,45.7,M,,0000*7F

['16:07:01', 52.216777, 0.11105166666666667, '25.1', '12', '2']
$GNGGA,160702.00,5213.01254,N,00006.66357,E,2,12,0.62,25.0,M,45.7,M,,0000*75

['16:07:02', 52.21687566666667, 0.1110595, '25.0', '12', '2']
$GNGGA,160703.00,5213.01864,N,00006.66412,E,2,12,0.62,25.0,M,45.7,M,,0000*7B

['16:07:03', 52.21697733333333, 0.11106866666666666, '25.0', '12', '2']
$GNGGA,160704.00,5213.02482,N,00006.66473,E,2,12,0.68,25.0,M,45.7,M,,0000*76

['16:07:04', 52.217080333333335, 0.11107883333333332, '25.0', '12', '2']
$GNGGA,160705.00,5213.03094,N,00006.66525,E,2,12,0.67,25.0,M,45.7,M,,0000*78

['16:07:05', 52.217182333333334, 0.1110875, '25.0', '12', '2']
$GNGGA,160706.00,5213.03688,N,00006.66578,E,2,12,0.62,25.0,M,45.7,M,,0000*7D

['16:07:06', 52.21728133333333, 0.11109633333333332, '25.0', '12', '2']
$GNGGA,160707.00,5213.04265,N,00006.66627,E,2,12,0.63,24.9,M,45.7,M,,0000*7C

['16:07:07', 52.2173775, 0.1111045, '24.9', '12', '2']
$GNGGA,160708.00,5213.04832,N,00006.66655,E,2,12,0.64,24.9,M,45.7,M,,0000*79

['16:07:08', 52.217472, 0.11110916666666666, '24.9', '12', '2']
$GNGGA,160709.00,5213.05406,N,00006.66665,E,2,12,0.63,24.9,M,45.7,M,,0000*76

['16:07:09', 52.21756766666667, 0.11111083333333333, '24.9', '12', '2']
$GNGGA,160710.00,5213.05991,N,00006.66699,E,2,12,0.67,24.8,M,45.7,M,,0000*7B

['16:07:10', 52.21766516666667, 0.1111165, '24.8', '12', '2']
$GNGGA,160711.00,5213.06580,N,00006.66741,E,2,12,0.63,24.5,M,45.7,M,,0000*78

['16:07:11', 52.21776333333333, 0.1111235, '24.5', '12', '2']
$GNGGA,160712.00,5213.07163,N,00006.66791,E,2,12,0.62,24.5,M,45.7,M,,0000*7F

['16:07:12', 52.2178605, 0.11113183333333333, '24.5', '12', '2']
$GNGGA,160713.00,5213.07740,N,00006.66848,E,2,12,0.68,24.5,M,45.7,M,,0000*78

['16:07:13', 52.217956666666666, 0.11114133333333333, '24.5', '12', '2']
$GNGGA,160714.00,5213.08311,N,00006.66928,E,2,12,0.67,24.4,M,45.7,M,,0000*79

['16:07:14', 52.218051833333334, 0.11115466666666667, '24.4', '12', '2']
$GNGGA,160715.00,5213.08874,N,00006.67044,E,2,12,0.62,24.2,M,45.7,M,,0000*71

['16:07:15', 52.218145666666665, 0.11117400000000001, '24.2', '12', '2']
$GNGGA,160716.00,5213.09431,N,00006.67192,E,2,12,0.70,24.1,M,45.7,M,,0000*74

['16:07:16', 52.2182385, 0.11119866666666667, '24.1', '12', '2']
$GNGGA,160717.00,5213.09984,N,00006.67363,E,2,12,0.63,24.0,M,45.7,M,,0000*79

['16:07:17', 52.21833066666667, 0.11122716666666667, '24.0', '12', '2']
$GNGGA,160718.00,5213.10539,N,00006.67538,E,2,12,0.63,23.7,M,45.7,M,,0000*7C

['16:07:18', 52.21842316666667, 0.11125633333333333, '23.7', '12', '2']
$GNGGA,160719.00,5213.11096,N,00006.67708,E,2,12,0.64,23.5,M,45.7,M,,0000*78

['16:07:19', 52.218516, 0.11128466666666667, '23.5', '12', '2']
$GNGGA,160720.00,5213.11651,N,00006.67875,E,2,12,0.65,23.4,M,45.7,M,,0000*7A

['16:07:20', 52.2186085, 0.1113125, '23.4', '12', '2']
$GNGGA,160721.00,5213.12194,N,00006.68037,E,2,12,0.67,23.3,M,45.7,M,,0000*72

['16:07:21', 52.218699, 0.1113395, '23.3', '12', '2']
$GNGGA,160722.00,5213.12720,N,00006.68162,E,2,12,0.64,23.5,M,45.7,M,,0000*7C

['16:07:22', 52.21878666666667, 0.11136033333333333, '23.5', '12', '2']
$GNGGA,160723.00,5213.13239,N,00006.68265,E,2,12,0.68,23.5,M,45.7,M,,0000*79

['16:07:23', 52.21887316666667, 0.11137749999999999, '23.5', '12', '2']
$GNGGA,160724.00,5213.13778,N,00006.68390,E,2,12,0.62,23.5,M,45.7,M,,0000*7F

['16:07:24', 52.218963, 0.11139833333333334, '23.5', '12', '2']
$GNGGA,160725.00,5213.14351,N,00006.68540,E,2,12,0.62,23.5,M,45.7,M,,0000*7D

['16:07:25', 52.2190585, 0.11142333333333333, '23.5', '12', '2']
$GNGGA,160726.00,5213.14951,N,00006.68710,E,2,12,0.65,23.5,M,45.7,M,,0000*74

['16:07:26', 52.2191585, 0.11145166666666667, '23.5', '12', '2']
$GNGGA,160727.00,5213.15549,N,00006.68883,E,2,12,0.62,23.3,M,45.7,M,,0000*75

['16:07:27', 52.21925816666667, 0.11148050000000001, '23.3', '12', '2']
$GNGGA,160728.00,5213.16129,N,00006.69066,E,2,12,0.62,23.2,M,45.7,M,,0000*78

['16:07:28', 52.219354833333334, 0.111511, '23.2', '12', '2']
$GNGGA,160729.00,5213.16676,N,00006.69238,E,2,12,0.67,23.5,M,45.7,M,,0000*7F

['16:07:29', 52.219446, 0.11153966666666666, '23.5', '12', '2']
$GNGGA,160730.00,5213.17202,N,00006.69400,E,2,12,0.62,23.6,M,45.7,M,,0000*7A

['16:07:30', 52.21953366666666, 0.11156666666666666, '23.6', '12', '2']
$GNGGA,160731.00,5213.17706,N,00006.69563,E,2,12,0.64,23.6,M,45.7,M,,0000*78

['16:07:31', 52.219617666666664, 0.11159383333333334, '23.6', '12', '2']
$GNGGA,160732.00,5213.18187,N,00006.69719,E,2,12,0.62,23.4,M,45.7,M,,0000*70

['16:07:32', 52.219697833333335, 0.11161983333333333, '23.4', '12', '2']
$GNGGA,160733.00,5213.18623,N,00006.69857,E,2,12,0.62,23.2,M,45.7,M,,0000*7B

['16:07:33', 52.2197705, 0.11164283333333333, '23.2', '12', '2']
$GNGGA,160734.00,5213.18996,N,00006.69971,E,2,12,0.62,23.2,M,45.7,M,,0000*78

['16:07:34', 52.21983266666667, 0.11166183333333332, '23.2', '12', '2']
$GNGGA,160735.00,5213.19327,N,00006.70079,E,2,12,0.62,23.3,M,45.7,M,,0000*70

['16:07:35', 52.21988783333333, 0.11167983333333333, '23.3', '12', '2']
$GNGGA,160736.00,5213.19644,N,00006.70167,E,2,12,0.62,23.3,M,45.7,M,,0000*7D

['16:07:36', 52.219940666666666, 0.1116945, '23.3', '12', '2']
$GNGGA,160737.00,5213.19953,N,00006.70155,E,2,12,0.62,23.2,M,45.7,M,,0000*75

['16:07:37', 52.219992166666664, 0.1116925, '23.2', '12', '2']
$GNGGA,160738.00,5213.20223,N,00006.69983,E,2,12,0.62,23.2,M,45.7,M,,0000*77

['16:07:38', 52.220037166666664, 0.11166383333333334, '23.2', '12', '2']
$GNGGA,160739.00,5213.20409,N,00006.69716,E,2,12,0.62,23.2,M,45.7,M,,0000*7A

['16:07:39', 52.220068166666664, 0.11161933333333333, '23.2', '12', '2']
$GNGGA,160740.00,5213.20537,N,00006.69512,E,2,12,0.62,23.1,M,45.7,M,,0000*7D

['16:07:40', 52.2200895, 0.11158533333333334, '23.1', '12', '2']
$GNGGA,160741.00,5213.20626,N,00006.69417,E,2,12,0.62,23.0,M,45.7,M,,0000*7A

['16:07:41', 52.22010433333333, 0.1115695, '23.0', '12', '2']
$GNGGA,160742.00,5213.20702,N,00006.69380,E,2,12,0.64,22.8,M,45.7,M,,0000*78

['16:07:42', 52.220117, 0.11156333333333333, '22.8', '12', '2']
$GNGGA,160743.00,5213.20770,N,00006.69369,E,2,12,0.64,22.8,M,45.7,M,,0000*7B

['16:07:43', 52.220128333333335, 0.11156150000000001, '22.8', '12', '2']
$GNGGA,160744.00,5213.20829,N,00006.69373,E,2,12,0.64,22.7,M,45.7,M,,0000*7B

['16:07:44', 52.220138166666665, 0.11156216666666667, '22.7', '12', '2']
$GNGGA,160745.00,5213.20895,N,00006.69401,E,2,12,0.64,22.8,M,45.7,M,,0000*70

['16:07:45', 52.220149166666666, 0.11156683333333332, '22.8', '12', '2']
$GNGGA,160746.00,5213.20986,N,00006.69475,E,2,12,0.64,22.7,M,45.7,M,,0000*7C

['16:07:46', 52.22016433333334, 0.11157916666666666, '22.7', '12', '2']
$GNGGA,160747.00,5213.21119,N,00006.69571,E,2,12,0.64,22.8,M,45.7,M,,0000*78

['16:07:47', 52.2201865, 0.11159516666666666, '22.8', '12', '2']
$GNGGA,160748.00,5213.21291,N,00006.69649,E,2,12,0.66,22.9,M,45.7,M,,0000*7F

['16:07:48', 52.22021516666667, 0.11160816666666666, '22.9', '12', '2']
$GNGGA,160749.00,5213.21494,N,00006.69709,E,2,12,0.69,23.0,M,45.7,M,,0000*7F

['16:07:49', 52.220249, 0.11161816666666667, '23.0', '12', '2']
$GNGGA,160750.00,5213.21693,N,00006.69784,E,2,12,0.67,23.1,M,45.7,M,,0000*78

['16:07:50', 52.220282166666664, 0.11163066666666667, '23.1', '12', '2']
$GNGGA,160751.00,5213.21840,N,00006.69941,E,2,12,0.70,23.1,M,45.7,M,,0000*78

['16:07:51', 52.220306666666666, 0.11165683333333334, '23.1', '12', '2']
$GNGGA,160752.00,5213.21915,N,00006.70085,E,2,12,0.64,23.0,M,45.7,M,,0000*77

['16:07:52', 52.22031916666667, 0.11168083333333333, '23.0', '12', '2']
$GNGGA,160753.00,5213.21941,N,00006.70150,E,2,12,0.67,23.0,M,45.7,M,,0000*7D

['16:07:53', 52.2203235, 0.11169166666666668, '23.0', '12', '2']
$GNGGA,160754.00,5213.21948,N,00006.70176,E,2,12,0.64,22.9,M,45.7,M,,0000*7C

['16:07:54', 52.22032466666667, 0.111696, '22.9', '12', '2']
$GNGGA,160755.00,5213.21949,N,00006.70185,E,2,12,0.62,22.8,M,45.7,M,,0000*77

['16:07:55', 52.220324833333336, 0.1116975, '22.8', '12', '2']
$GNGGA,160756.00,5213.21950,N,00006.70188,E,2,12,0.62,22.7,M,45.7,M,,0000*7E

['16:07:56', 52.220325, 0.111698, '22.7', '12', '2']
$GNGGA,160757.00,5213.21950,N,00006.70191,E,2,12,0.62,22.6,M,45.7,M,,0000*76

['16:07:57', 52.220325, 0.11169849999999999, '22.6', '12', '2']
$GNGGA,160758.00,5213.21952,N,00006.70192,E,2,12,0.62,22.5,M,45.7,M,,0000*7B

['16:07:58', 52.220325333333335, 0.11169866666666667, '22.5', '12', '2']
$GNGGA,160759.00,5213.21953,N,00006.70193,E,2,12,0.64,22.4,M,45.7,M,,0000*7D

['16:07:59', 52.2203255, 0.11169883333333333, '22.4', '12', '2']
$GNGGA,160800.00,5213.21953,N,00006.70192,E,2,12,0.62,22.3,M,45.7,M,,0000*7E

['16:08:00', 52.2203255, 0.11169866666666667, '22.3', '12', '2']
$GNGGA,160801.00,5213.21953,N,00006.70192,E,2,12,0.67,22.2,M,45.7,M,,0000*7B

['16:08:01', 52.2203255, 0.11169866666666667, '22.2', '12', '2']
$GNGGA,160802.00,5213.21954,N,00006.70191,E,2,12,0.62,22.2,M,45.7,M,,0000*79

['16:08:02', 52.22032566666667, 0.11169849999999999, '22.2', '12', '2']
$GNGGA,160803.00,5213.21955,N,00006.70189,E,2,12,0.67,22.1,M,45.7,M,,0000*76

['16:08:03', 52.220325833333334, 0.11169816666666667, '22.1', '12', '2']
$GNGGA,160804.00,5213.21955,N,00006.70189,E,2,12,0.62,22.1,M,45.7,M,,0000*74

['16:08:04', 52.220325833333334, 0.11169816666666667, '22.1', '12', '2']
$GNGGA,160805.00,5213.21956,N,00006.70188,E,2,12,0.62,22.0,M,45.7,M,,0000*76
['16:08:04', 52.220325833333334, 0.11169816666666667, '22.1', '12', '2']
$GNGGA,160805.00,5213.21956,N,00006.70188,E,2,12,0.62,22.0,M,45.7,M,,0000*76
['16:08:04', 52.220325833333334, 0.11169816666666667, '22.1', '12', '2']
$GNGGA,160805.00,5213.21956,N,00006.70188,E,2,12,0.62,22.0,M,45.7,M,,0000*76
['16:08:04', 52.220325833333334, 0.11169816666666667, '22.1', '12', '2']
$GNGGA,160805.00,5213.21956,N,00006.70188,E,2,12,0.62,22.0,M,45.7,M,,0000*76
['16:08:04', 52.220325833333334, 0.11169816666666667, '22.1', '12', '2']
$GNGGA,160805.00,5213.21956,N,00006.70188,E,2,12,0.62,22.0,M,45.7,M,,0000*76
['16:08:04', 52.220325833333334, 0.11169816666666667, '22.1', '12', '2']
$GNGGA,160805.00,5213.21956,N,00006.70188,E,2,12,0.62,22.0,M,45.7,M,,0000*76
['16:08:04', 52.220325833333334, 0.11169816666666667, '22.1', '12', '2']
$GNGGA,160805.00,5213.21956,N,00006.70188,E,2,12,0.62,22.0,M,45.7,M,,0000*76
['16:08:04', 52.220325833333334, 0.11169816666666667, '22.1', '12', '2']
$GNGGA,160805.00,5213.21956,N,00006.70188,E,2,12,0.62,22.0,M,45.7,M,,0000*76
['16:08:04', 52.220325833333334, 0.11169816666666667, '22.1', '12', '2']
$GNGGA,160805.00,5213.21956,N,00006.70188,E,2,12,0.62,22.0,M,45.7,M,,0000*76
['16:08:04', 52.220325833333334, 0.11169816666666667, '22.1', '12', '2']
$GNGGA,160805.00,5213.21956,N,00006.70188,E,2,12,0.62,22.0,M,45.7,M,,0000*76
['16:08:04', 52.220325833333334, 0.11169816666666667, '22.1', '12', '2']
$GNGGA,160805.00,5213.21956,N,00006.70188,E,2,12,0.62,22.0,M,45.7,M,,0000*76
['16:08:04', 52.220325833333334, 0.11169816666666667, '22.1', '12', '2']
$GNGGA,160805.00,5213.21956,N,00006.70188,E,2,12,0.62,22.0,M,45.7,M,,0000*76
['16:08:04', 52.220325833333334, 0.11169816666666667, '22.1', '12', '2']
$GNGGA,160805.00,5213.21956,N,00006.70188,E,2,12,0.62,22.0,M,45.7,M,,0000*76
['16:08:04', 52.220325833333334, 0.11169816666666667, '22.1', '12', '2']
$GNGGA,160805.00,5213.21956,N,00006.70188,E,2,12,0.62,22.0,M,45.7,M,,0000*76
['16:08:04', 52.220325833333334, 0.11169816666666667, '22.1', '12', '2']
$GNGGA,160805.00,5213.21956,N,00006.70188,E,2,12,0.62,22.0,M,45.7,M,,0000*76
['16:08:04', 52.220325833333334, 0.11169816666666667, '22.1', '12', '2']
$GNGGA,160805.00,5213.21956,N,00006.70188,E,2,12,0.62,22.0,M,45.7,M,,0000*76
['16:08:04', 52.220325833333334, 0.11169816666666667, '22.1', '12', '2']
$GNGGA,160805.00,5213.21956,N,00006.70188,E,2,12,0.62,22.0,M,45.7,M,,0000*76
['16:08:04', 52.220325833333334, 0.11169816666666667, '22.1', '12', '2']
$GNGGA,160805.00,5213.21956,N,00006.70188,E,2,12,0.62,22.0,M,45.7,M,,0000*76
['16:08:04', 52.220325833333334, 0.11169816666666667, '22.1', '12', '2']
$GNGGA,160805.00,5213.21956,N,00006.70188,E,2,12,0.62,22.0,M,45.7,M,,0000*76
['16:08:04', 52.220325833333334, 0.11169816666666667, '22.1', '12', '2']
$GNGGA,160805.00,5213.21956,N,00006.70188,E,2,12,0.62,22.0,M,45.7,M,,0000*76
['16:08:04', 52.220325833333334, 0.11169816666666667, '22.1', '12', '2']
$GNGGA,160805.00,5213.21956,N,00006.70188,E,2,12,0.62,22.0,M,45.7,M,,0000*76
['16:08:04', 52.220325833333334, 0.11169816666666667, '22.1', '12', '2']
$GNGGA,160805.00,5213.21956,N,00006.70188,E,2,12,0.62,22.0,M,45.7,M,,0000*76
['16:08:04', 52.220325833333334, 0.11169816666666667, '22.1', '12', '2']
$GNGGA,160805.00,5213.21956,N,00006.70188,E,2,12,0.62,22.0,M,45.7,M,,0000*76
['16:08:04', 52.220325833333334, 0.11169816666666667, '22.1', '12', '2']
$GNGGA,160805.00,5213.21956,N,00006.70188,E,2,12,0.62,22.0,M,45.7,M,,0000*76
['16:08:04', 52.220325833333334, 0.11169816666666667, '22.1', '12', '2']
$GNGGA,160805.00,5213.21956,N,00006.70188,E,2,12,0.62,22.0,M,45.7,M,,0000*76
['16:08:04', 52.220325833333334, 0.11169816666666667, '22.1', '12', '2']
$GNGGA,160805.00,5213.21956,N,00006.70188,E,2,12,0.62,22.0,M,45.7,M,,0000*76

$GNGGA,161902.00,5213.22022,N,00006.70097,E,1,09,0.94,21.2,M,45.7,M,,*76

['16:19:02', 52.220337, 0.11168283333333333, '21.2', '09', '1']
$GNGGA,161903.00,5213.22017,N,00006.70089,E,1,09,0.94,21.2,M,45.7,M,,*7E

['16:19:03', 52.22033616666667, 0.1116815, '21.2', '09', '1']
$GNGGA,161903.00,5213.22020,N,00006.70087,E,1,12,0.85,21.3,M,45.7,M,,*7F

['16:19:03', 52.22033666666667, 0.11168116666666666, '21.3', '12', '1']
$GNGGA,161904.00,5213.22022,N,00006.70081,E,1,12,0.85,21.3,M,45.7,M,,*7C

['16:19:04', 52.220337, 0.11168016666666666, '21.3', '12', '1']
$GNGGA,161905.00,5213.22019,N,00006.70069,E,1,12,0.68,21.1,M,45.7,M,,*72

['16:19:05', 52.2203365, 0.11167816666666666, '21.1', '12', '1']
$GNGGA,161906.00,5213.22017,N,00006.70055,E,1,12,0.68,20.9,M,45.7,M,,*79

['16:19:06', 52.22033616666667, 0.11167583333333334, '20.9', '12', '1']
$GNGGA,161907.00,5213.22015,N,00006.70040,E,1,12,0.68,20.8,M,45.7,M,,*7F

['16:19:07', 52.22033583333333, 0.11167333333333333, '20.8', '12', '1']
$GNGGA,161908.00,5213.22013,N,00006.70027,E,1,12,0.68,20.7,M,45.7,M,,*78

['16:19:08', 52.2203355, 0.11167116666666667, '20.7', '12', '1']
$GNGGA,161909.00,5213.22008,N,00006.70018,E,1,12,0.68,20.5,M,45.7,M,,*7D

['16:19:09', 52.220334666666666, 0.11166966666666665, '20.5', '12', '1']
$GNGGA,161910.00,5213.22004,N,00006.70015,E,1,12,0.68,20.4,M,45.7,M,,*75

['16:19:10', 52.220334, 0.11166916666666667, '20.4', '12', '1']
$GNGGA,161911.00,5213.21999,N,00006.70013,E,1,12,0.68,20.3,M,45.7,M,,*7B

['16:19:11', 52.22033316666667, 0.11166883333333333, '20.3', '12', '1']
$GNGGA,161912.00,5213.21994,N,00006.70012,E,1,12,0.68,20.2,M,45.7,M,,*75

['16:19:12', 52.22033233333333, 0.11166866666666667, '20.2', '12', '1']
$GNGGA,161913.00,5213.21989,N,00006.70012,E,1,12,0.68,20.0,M,45.7,M,,*7A

['16:19:13', 52.2203315, 0.11166866666666667, '20.0', '12', '1']
$GNGGA,161914.00,5213.21985,N,00006.70013,E,1,12,0.68,19.9,M,45.7,M,,*73

['16:19:14', 52.220330833333335, 0.11166883333333333, '19.9', '12', '1']
$GNGGA,161915.00,5213.21981,N,00006.70013,E,1,12,0.68,19.8,M,45.7,M,,*77

['16:19:15', 52.22033016666666, 0.11166883333333333, '19.8', '12', '1']
$GNGGA,161916.00,5213.21978,N,00006.70016,E,1,12,0.68,19.7,M,45.7,M,,*78

['16:19:16', 52.220329666666665, 0.11166933333333334, '19.7', '12', '1']
$GNGGA,161917.00,5213.21975,N,00006.70018,E,1,12,0.68,19.6,M,45.7,M,,*7B

['16:19:17', 52.220329166666666, 0.11166966666666665, '19.6', '12', '1']
$GNGGA,161918.00,5213.21972,N,00006.70020,E,1,12,0.68,19.5,M,45.7,M,,*7B

['16:19:18', 52.22032866666667, 0.11166999999999999, '19.5', '12', '1']
$GNGGA,161919.00,5213.21969,N,00006.70023,E,1,12,0.68,19.4,M,45.7,M,,*72

['16:19:19', 52.22032816666667, 0.1116705, '19.4', '12', '1']
$GNGGA,161920.00,5213.21967,N,00006.70026,E,1,12,0.68,19.4,M,45.7,M,,*73

['16:19:20', 52.220327833333336, 0.111671, '19.4', '12', '1']
$GNGGA,161921.00,5213.21964,N,00006.70031,E,1,12,0.68,19.3,M,45.7,M,,*70

['16:19:21', 52.22032733333333, 0.11167183333333333, '19.3', '12', '1']
$GNGGA,161922.00,5213.21962,N,00006.70035,E,1,12,0.68,19.2,M,45.7,M,,*70

['16:19:22', 52.220327, 0.11167250000000001, '19.2', '12', '1']
$GNGGA,161923.00,5213.21960,N,00006.70039,E,1,12,0.68,19.2,M,45.7,M,,*7F

['16:19:23', 52.220326666666665, 0.11167316666666666, '19.2', '12', '1']
$GNGGA,161924.00,5213.21958,N,00006.70042,E,1,12,0.68,19.1,M,45.7,M,,*7C

['16:19:24', 52.22032633333333, 0.11167366666666667, '19.1', '12', '1']
$GNGGA,161925.00,5213.21956,N,00006.70044,E,1,12,0.68,19.0,M,45.7,M,,*74

['16:19:25', 52.220326, 0.11167400000000001, '19.0', '12', '1']
$GNGGA,161926.00,5213.21954,N,00006.70039,E,1,12,0.68,19.0,M,45.7,M,,*7F

['16:19:26', 52.22032566666667, 0.11167316666666666, '19.0', '12', '1']
$GNGGA,161927.00,5213.21944,N,00006.70014,E,1,12,0.68,19.0,M,45.7,M,,*70

['16:19:27', 52.220324, 0.111669, '19.0', '12', '1']
$GNGGA,161928.00,5213.21920,N,00006.69957,E,1,12,0.68,19.0,M,45.7,M,,*7B

['16:19:28', 52.22032, 0.1116595, '19.0', '12', '1']
$GNGGA,161929.00,5213.21883,N,00006.69871,E,1,12,0.71,19.0,M,45.7,M,,*7F

['16:19:29', 52.220313833333336, 0.11164516666666667, '19.0', '12', '1']
$GNGGA,161930.00,5213.21843,N,00006.69799,E,1,12,0.68,19.1,M,45.7,M,,*7B

['16:19:30', 52.220307166666665, 0.11163316666666666, '19.1', '12', '1']
$GNGGA,161931.00,5213.21820,N,00006.69764,E,1,12,0.68,19.1,M,45.7,M,,*7D

['16:19:31', 52.220303333333334, 0.11162733333333333, '19.1', '12', '1']
$GNGGA,161932.00,5213.21819,N,00006.69760,E,1,12,0.77,19.2,M,45.7,M,,*7D

['16:19:32', 52.22030316666667, 0.11162666666666668, '19.2', '12', '1']
$GNGGA,161933.00,5213.21857,N,00006.69790,E,1,12,0.68,19.3,M,45.7,M,,*76

['16:19:33', 52.2203095, 0.11163166666666666, '19.3', '12', '1']
$GNGGA,161934.00,5213.21960,N,00006.69828,E,1,12,0.71,19.4,M,45.7,M,,*77

['16:19:34', 52.220326666666665, 0.11163799999999999, '19.4', '12', '1']
$GNGGA,161935.00,5213.22151,N,00006.69851,E,1,12,0.68,19.3,M,45.7,M,,*7E

['16:19:35', 52.2203585, 0.11164183333333333, '19.3', '12', '1']
$GNGGA,161936.00,5213.22422,N,00006.69889,E,1,12,0.77,19.3,M,45.7,M,,*77

['16:19:36', 52.22040366666667, 0.11164816666666666, '19.3', '12', '1']
$GNGGA,161937.00,5213.22712,N,00006.69959,E,1,12,0.68,19.5,M,45.7,M,,*72

['16:19:37', 52.220452, 0.11165983333333333, '19.5', '12', '1']
$GNGGA,161938.00,5213.22994,N,00006.70045,E,1,12,0.77,19.6,M,45.7,M,,*7C

['16:19:38', 52.220499, 0.11167416666666667, '19.6', '12', '1']
$GNGGA,161939.00,5213.23262,N,00006.70121,E,1,12,0.68,19.7,M,45.7,M,,*72

['16:19:39', 52.220543666666664, 0.11168683333333333, '19.7', '12', '1']
$GNGGA,161940.00,5213.23506,N,00006.70174,E,1,12,0.68,19.7,M,45.7,M,,*79

['16:19:40', 52.220584333333335, 0.11169566666666667, '19.7', '12', '1']
$GNGGA,161941.00,5213.23699,N,00006.70218,E,1,12,0.77,19.5,M,45.7,M,,*78

['16:19:41', 52.2206165, 0.11170300000000001, '19.5', '12', '1']
$GNGGA,161942.00,5213.23858,N,00006.70276,E,1,12,0.77,19.5,M,45.7,M,,*70

['16:19:42', 52.220643, 0.11171266666666665, '19.5', '12', '1']
$GNGGA,161943.00,5213.23975,N,00006.70404,E,1,12,0.71,19.6,M,45.7,M,,*79

['16:19:43', 52.2206625, 0.111734, '19.6', '12', '1']
$GNGGA,161944.00,5213.24021,N,00006.70587,E,1,12,0.71,19.6,M,45.7,M,,*7B

['16:19:44', 52.220670166666665, 0.1117645, '19.6', '12', '1']
$GNGGA,161945.00,5213.24032,N,00006.70739,E,1,12,0.71,19.7,M,45.7,M,,*7E

['16:19:45', 52.220672, 0.11178983333333334, '19.7', '12', '1']
$GNGGA,161946.00,5213.24031,N,00006.70778,E,1,12,0.68,19.6,M,45.7,M,,*72

['16:19:46', 52.220671833333334, 0.11179633333333333, '19.6', '12', '1']
$GNGGA,161947.00,5213.24028,N,00006.70782,E,1,12,0.68,19.6,M,45.7,M,,*7E

['16:19:47', 52.220671333333335, 0.111797, '19.6', '12', '1']
$GNGGA,161948.00,5213.24028,N,00006.70822,E,1,12,0.68,19.6,M,45.7,M,,*74

['16:19:48', 52.220671333333335, 0.11180366666666666, '19.6', '12', '1']
$GNGGA,161949.00,5213.24038,N,00006.70946,E,1,12,0.68,19.6,M,45.7,M,,*77

['16:19:49', 52.220673, 0.11182433333333333, '19.6', '12', '1']
$GNGGA,161950.00,5213.24086,N,00006.71140,E,1,12,0.68,19.5,M,45.7,M,,*76

['16:19:50', 52.220681, 0.11185666666666667, '19.5', '12', '1']
$GNGGA,161951.00,5213.24222,N,00006.71326,E,1,12,0.68,19.6,M,45.7,M,,*7A

['16:19:51', 52.220703666666665, 0.11188766666666666, '19.6', '12', '1']
$GNGGA,161952.00,5213.24469,N,00006.71447,E,1,12,0.68,19.6,M,45.7,M,,*70

['16:19:52', 52.220744833333335, 0.11190783333333335, '19.6', '12', '1']
$GNGGA,161953.00,5213.24811,N,00006.71536,E,1,12,0.68,19.6,M,45.7,M,,*75

['16:19:53', 52.22080183333333, 0.11192266666666667, '19.6', '12', '1']
$GNGGA,161954.00,5213.25224,N,00006.71606,E,1,12,0.68,19.6,M,45.7,M,,*7F

['16:19:54', 52.22087066666667, 0.11193433333333333, '19.6', '12', '1']
$GNGGA,161955.00,5213.25682,N,00006.71670,E,1,12,0.71,19.5,M,45.7,M,,*7C

['16:19:55', 52.220947, 0.111945, '19.5', '12', '1']
$GNGGA,161956.00,5213.26151,N,00006.71735,E,1,12,0.68,19.5,M,45.7,M,,*7D

['16:19:56', 52.221025166666664, 0.11195583333333332, '19.5', '12', '1']
$GNGGA,161957.00,5213.26595,N,00006.71776,E,1,12,0.68,19.5,M,45.7,M,,*77

['16:19:57', 52.22109916666667, 0.11196266666666667, '19.5', '12', '1']
$GNGGA,161958.00,5213.26989,N,00006.71808,E,1,12,0.68,19.5,M,45.7,M,,*7F

['16:19:58', 52.22116483333333, 0.111968, '19.5', '12', '1']
$GNGGA,161959.00,5213.27304,N,00006.71845,E,1,12,0.68,19.5,M,45.7,M,,*79

['16:19:59', 52.221217333333335, 0.11197416666666667, '19.5', '12', '1']
$GNGGA,162000.00,5213.27491,N,00006.71874,E,1,12,0.68,19.5,M,45.7,M,,*76

['16:20:00', 52.2212485, 0.11197900000000001, '19.5', '12', '1']
$GNGGA,162001.00,5213.27535,N,00006.71882,E,1,12,0.68,19.5,M,45.7,M,,*71

['16:20:01', 52.22125583333333, 0.11198033333333333, '19.5', '12', '1']
$GNGGA,162002.00,5213.27534,N,00006.71884,E,2,12,0.68,19.4,M,45.7,M,,0000*77

['16:20:02', 52.221255666666664, 0.11198066666666667, '19.4', '12', '2']
$GNGGA,162003.00,5213.27532,N,00006.71886,E,2,12,0.68,19.4,M,45.7,M,,0000*72

['16:20:03', 52.22125533333333, 0.11198100000000001, '19.4', '12', '2']
$GNGGA,162004.00,5213.27531,N,00006.71887,E,2,12,0.68,19.4,M,45.7,M,,0000*77

['16:20:04', 52.221255166666666, 0.11198116666666666, '19.4', '12', '2']
$GNGGA,162005.00,5213.27530,N,00006.71888,E,2,12,0.68,19.4,M,45.7,M,,0000*78

['16:20:05', 52.221255, 0.11198133333333334, '19.4', '12', '2']
$GNGGA,162006.00,5213.27530,N,00006.71889,E,2,12,0.68,19.4,M,45.7,M,,0000*7A

['16:20:06', 52.221255, 0.1119815, '19.4', '12', '2']
$GNGGA,162007.00,5213.27529,N,00006.71890,E,2,12,0.68,19.4,M,45.7,M,,0000*7B

['16:20:07', 52.22125483333333, 0.11198166666666666, '19.4', '12', '2']
$GNGGA,162008.00,5213.27528,N,00006.71891,E,2,12,0.68,19.4,M,45.7,M,,0000*74

['16:20:08', 52.22125466666667, 0.11198183333333334, '19.4', '12', '2']
$GNGGA,162009.00,5213.27528,N,00006.71894,E,2,12,0.62,19.5,M,45.7,M,,0000*7B

['16:20:09', 52.22125466666667, 0.11198233333333334, '19.5', '12', '2']
$GNGGA,162010.00,5213.27528,N,00006.71896,E,2,12,0.62,19.5,M,45.7,M,,0000*71

['16:20:10', 52.22125466666667, 0.11198266666666666, '19.5', '12', '2']
$GNGGA,162011.00,5213.27528,N,00006.71897,E,2,12,0.62,19.6,M,45.7,M,,0000*72

['16:20:11', 52.22125466666667, 0.11198283333333332, '19.6', '12', '2']
$GNGGA,162012.00,5213.27529,N,00006.71899,E,2,12,0.62,19.6,M,45.7,M,,0000*7E

['16:20:12', 52.22125483333333, 0.11198316666666666, '19.6', '12', '2']
$GNGGA,162013.00,5213.27529,N,00006.71901,E,2,12,0.62,19.6,M,45.7,M,,0000*7F

['16:20:13', 52.22125483333333, 0.1119835, '19.6', '12', '2']
$GNGGA,162014.00,5213.27531,N,00006.71899,E,2,12,0.62,19.7,M,45.7,M,,0000*70

['16:20:14', 52.221255166666666, 0.11198316666666666, '19.7', '12', '2']
$GNGGA,162015.00,5213.27533,N,00006.71898,E,2,12,0.62,19.7,M,45.7,M,,0000*72

['16:20:15', 52.2212555, 0.111983, '19.7', '12', '2']
$GNGGA,162016.00,5213.27534,N,00006.71899,E,2,12,0.62,19.7,M,45.7,M,,0000*77

['16:20:16', 52.221255666666664, 0.11198316666666666, '19.7', '12', '2']
